<?xml version="1.0" encoding="ISO-8859-1"?>
<VALLOKALER>
  <LÄN KOD="10" NAMN="Blekinge län">
    <KOMMUN KOD="82" NAMN="Karlshamn" VALNAMND="Valnämnden i Karlshamns kommun" HEMSIDA="www.karlshamn.se" TELNR="0454-81000" KLAR="J">
      <VALDISTRIKT KOD="0515" NAMN="Centrala Asarum" AKTIV_R="J" VALDAG_R="2018-09-09" AKTIV_L="J" VALDAG_L="2018-09-09" AKTIV_K="J" VALDAG_K="2018-09-09" VALKRETS_K="00" VK_NAMN_K="Karlshamn" AKTIV_E="N" VALDAG_E="" LOKAL="Fritidsgården Loftet" ADRESS1="" ADRESS2="Gröna vägen 9" ADRESS3="" TILLGÄNGL="" LOKAL_KLAR="J" STATUS="E" LATITUD="56.20827" LONGITUD="14.83208">
        <ÖPPETPASS DATUM="2018-09-09" PASS="08:00-20:00" />
      </VALDISTRIKT>
      <VALDISTRIKT KOD="0514" NAMN="Froarp" AKTIV_R="J" VALDAG_R="2018-09-09" AKTIV_L="J" VALDAG_L="2018-09-09" AKTIV_K="J" VALDAG_K="2018-09-09" VALKRETS_K="00" VK_NAMN_K="Karlshamn" AKTIV_E="N" VALDAG_E="" LOKAL="Träffpunkt Asarum" ADRESS1="" ADRESS2="Dyks väg 1" ADRESS3="" TILLGÄNGL="" LOKAL_KLAR="J" STATUS="E" LATITUD="56.209471" LONGITUD="14.834064">
        <ÖPPETPASS DATUM="2018-09-09" PASS="08:00-20:00" />
      </VALDISTRIKT>
      <VALDISTRIKT KOD="0621" NAMN="Gustavstorp" AKTIV_R="J" VALDAG_R="2018-09-09" AKTIV_L="J" VALDAG_L="2018-09-09" AKTIV_K="J" VALDAG_K="2018-09-09" VALKRETS_K="00" VK_NAMN_K="Karlshamn" AKTIV_E="N" VALDAG_E="" LOKAL="Mörrums skola" ADRESS1="Matsalen" ADRESS2="Skolvägen 3" ADRESS3="" TILLGÄNGL="Ramp för rörelsehindrade finns." LOKAL_KLAR="J" STATUS="E" LATITUD="56.193518" LONGITUD="14.74524">
        <ÖPPETPASS DATUM="2018-09-09" PASS="08:00-20:00" />
      </VALDISTRIKT>
      <VALDISTRIKT KOD="0512" NAMN="Horsaryd" AKTIV_R="J" VALDAG_R="2018-09-09" AKTIV_L="J" VALDAG_L="2018-09-09" AKTIV_K="J" VALDAG_K="2018-09-09" VALKRETS_K="00" VK_NAMN_K="Karlshamn" AKTIV_E="N" VALDAG_E="" LOKAL="Björkhalla dagcentral" ADRESS1="" ADRESS2="Lärkvägen 96" ADRESS3="" TILLGÄNGL="" LOKAL_KLAR="J" STATUS="E" LATITUD="56.196602" LONGITUD="14.824031">
        <ÖPPETPASS DATUM="2018-09-09" PASS="08:00-20:00" />
      </VALDISTRIKT>
      <VALDISTRIKT KOD="0310" NAMN="Hällaryd" AKTIV_R="J" VALDAG_R="2018-09-09" AKTIV_L="J" VALDAG_L="2018-09-09" AKTIV_K="J" VALDAG_K="2018-09-09" VALKRETS_K="00" VK_NAMN_K="Karlshamn" AKTIV_E="N" VALDAG_E="" LOKAL="Nyponbackens matsal" ADRESS1="" ADRESS2="Kommunalhusvägen 2" ADRESS3="" TILLGÄNGL="" LOKAL_KLAR="J" STATUS="E" LATITUD="56.20402" LONGITUD="14.94698">
        <ÖPPETPASS DATUM="2018-09-09" PASS="08:00-20:00" />
      </VALDISTRIKT>
      <VALDISTRIKT KOD="0101" NAMN="Högadal" AKTIV_R="J" VALDAG_R="2018-09-09" AKTIV_L="J" VALDAG_L="2018-09-09" AKTIV_K="J" VALDAG_K="2018-09-09" VALKRETS_K="00" VK_NAMN_K="Karlshamn" AKTIV_E="N" VALDAG_E="" LOKAL="Gustavsborg samlingssal" ADRESS1="" ADRESS2="Matrosgatan 18" ADRESS3="" TILLGÄNGL="" LOKAL_KLAR="J" STATUS="E" LATITUD="56.178274" LONGITUD="14.858861">
        <ÖPPETPASS DATUM="2018-09-09" PASS="08:00-20:00" />
      </VALDISTRIKT>
      <VALDISTRIKT KOD="0513" NAMN="Korpadalen" AKTIV_R="J" VALDAG_R="2018-09-09" AKTIV_L="J" VALDAG_L="2018-09-09" AKTIV_K="J" VALDAG_K="2018-09-09" VALKRETS_K="00" VK_NAMN_K="Karlshamn" AKTIV_E="N" VALDAG_E="" LOKAL="Korpadalsskolan" ADRESS1="Gymnastiksalen" ADRESS2="Iglavägen 38" ADRESS3="" TILLGÄNGL="" LOKAL_KLAR="J" STATUS="E" LATITUD="56.20595" LONGITUD="14.85034">
        <ÖPPETPASS DATUM="2018-09-09" PASS="08:00-20:00" />
      </VALDISTRIKT>
      <VALDISTRIKT KOD="0619" NAMN="Mörrum västra" AKTIV_R="J" VALDAG_R="2018-09-09" AKTIV_L="J" VALDAG_L="2018-09-09" AKTIV_K="J" VALDAG_K="2018-09-09" VALKRETS_K="00" VK_NAMN_K="Karlshamn" AKTIV_E="N" VALDAG_E="" LOKAL="Mörrums församlingshem" ADRESS1="" ADRESS2="Karlshamnsvägen 6" ADRESS3="" TILLGÄNGL="" LOKAL_KLAR="J" STATUS="E" LATITUD="56.19287" LONGITUD="14.749349">
        <ÖPPETPASS DATUM="2018-09-09" PASS="08:00-20:00" />
      </VALDISTRIKT>
      <VALDISTRIKT KOD="0620" NAMN="Mörrum östra" AKTIV_R="J" VALDAG_R="2018-09-09" AKTIV_L="J" VALDAG_L="2018-09-09" AKTIV_K="J" VALDAG_K="2018-09-09" VALKRETS_K="00" VK_NAMN_K="Karlshamn" AKTIV_E="N" VALDAG_E="" LOKAL="Ådalskyrkan" ADRESS1="" ADRESS2="Ådalsvägen 8" ADRESS3="" TILLGÄNGL="" LOKAL_KLAR="J" STATUS="E" LATITUD="56.195044" LONGITUD="14.750385">
        <ÖPPETPASS DATUM="2018-09-09" PASS="08:00-20:00" />
      </VALDISTRIKT>
      <VALDISTRIKT KOD="0102" NAMN="Prästslätten" AKTIV_R="J" VALDAG_R="2018-09-09" AKTIV_L="J" VALDAG_L="2018-09-09" AKTIV_K="J" VALDAG_K="2018-09-09" VALKRETS_K="00" VK_NAMN_K="Karlshamn" AKTIV_E="N" VALDAG_E="" LOKAL="Prästslättsskolan" ADRESS1="Foajén" ADRESS2="Markastuvägen 2" ADRESS3="" TILLGÄNGL="" LOKAL_KLAR="J" STATUS="E" LATITUD="56.181399" LONGITUD="14.867046">
        <ÖPPETPASS DATUM="2018-09-09" PASS="08:00-20:00" />
      </VALDISTRIKT>
      <VALDISTRIKT KOD="0107" NAMN="Skogsborg" AKTIV_R="J" VALDAG_R="2018-09-09" AKTIV_L="J" VALDAG_L="2018-09-09" AKTIV_K="J" VALDAG_K="2018-09-09" VALKRETS_K="00" VK_NAMN_K="Karlshamn" AKTIV_E="N" VALDAG_E="" LOKAL="Stadsteatern" ADRESS1="Foajén" ADRESS2="Erik Dahlbergsvägen 14" ADRESS3="" TILLGÄNGL="Ramp för rörelsehindrade finns." LOKAL_KLAR="J" STATUS="E" LATITUD="56.168417" LONGITUD="14.87129">
        <ÖPPETPASS DATUM="2018-09-09" PASS="08:00-20:00" />
      </VALDISTRIKT>
      <VALDISTRIKT KOD="0103" NAMN="Stadsporten" AKTIV_R="J" VALDAG_R="2018-09-09" AKTIV_L="J" VALDAG_L="2018-09-09" AKTIV_K="J" VALDAG_K="2018-09-09" VALKRETS_K="00" VK_NAMN_K="Karlshamn" AKTIV_E="N" VALDAG_E="" LOKAL="Lokstallarna" ADRESS1="Foajén" ADRESS2="Prinsgatan 43" ADRESS3="" TILLGÄNGL="" LOKAL_KLAR="J" STATUS="E" LATITUD="56.1769" LONGITUD="14.85317">
        <ÖPPETPASS DATUM="2018-09-09" PASS="08:00-20:00" />
      </VALDISTRIKT>
      <VALDISTRIKT KOD="0517" NAMN="Svängsta nordöst" AKTIV_R="J" VALDAG_R="2018-09-09" AKTIV_L="J" VALDAG_L="2018-09-09" AKTIV_K="J" VALDAG_K="2018-09-09" VALKRETS_K="00" VK_NAMN_K="Karlshamn" AKTIV_E="N" VALDAG_E="" LOKAL="Medborgarhuset" ADRESS1="Foajén" ADRESS2="Skyttevägen 5" ADRESS3="" TILLGÄNGL="" LOKAL_KLAR="J" STATUS="E" LATITUD="56.258873" LONGITUD="14.776754">
        <ÖPPETPASS DATUM="2018-09-09" PASS="08:00-20:00" />
      </VALDISTRIKT>
      <VALDISTRIKT KOD="0518" NAMN="Svängsta sydväst" AKTIV_R="J" VALDAG_R="2018-09-09" AKTIV_L="J" VALDAG_L="2018-09-09" AKTIV_K="J" VALDAG_K="2018-09-09" VALKRETS_K="00" VK_NAMN_K="Karlshamn" AKTIV_E="N" VALDAG_E="" LOKAL="Svängstakrogen" ADRESS1="" ADRESS2="Öjavadsvägen 2" ADRESS3="" TILLGÄNGL="" LOKAL_KLAR="J" STATUS="E" LATITUD="56.261978" LONGITUD="14.767811">
        <ÖPPETPASS DATUM="2018-09-09" PASS="08:00-20:00" />
      </VALDISTRIKT>
      <VALDISTRIKT KOD="0104" NAMN="Torget" AKTIV_R="J" VALDAG_R="2018-09-09" AKTIV_L="J" VALDAG_L="2018-09-09" AKTIV_K="J" VALDAG_K="2018-09-09" VALKRETS_K="00" VK_NAMN_K="Karlshamn" AKTIV_E="N" VALDAG_E="" LOKAL="Rådhuset" ADRESS1="Cafeterian" ADRESS2="Rådhusgatan 10" ADRESS3="" TILLGÄNGL="Entré för rörelsehindrade från Kungsgatan 27." LOKAL_KLAR="J" STATUS="E" LATITUD="56.169599" LONGITUD="14.863792">
        <ÖPPETPASS DATUM="2018-09-09" PASS="08:00-20:00" />
      </VALDISTRIKT>
      <VALDISTRIKT KOD="0106" NAMN="Tubbaryd" AKTIV_R="J" VALDAG_R="2018-09-09" AKTIV_L="J" VALDAG_L="2018-09-09" AKTIV_K="J" VALDAG_K="2018-09-09" VALKRETS_K="00" VK_NAMN_K="Karlshamn" AKTIV_E="N" VALDAG_E="" LOKAL="Bellevueparken" ADRESS1="Playhouse" ADRESS2="Sternövägen 36" ADRESS3="" TILLGÄNGL="Ramp för rörelsehindrade finns." LOKAL_KLAR="J" STATUS="E" LATITUD="56.177562" LONGITUD="14.850377">
        <ÖPPETPASS DATUM="2018-09-09" PASS="08:00-20:00" />
      </VALDISTRIKT>
      <VALDISTRIKT KOD="0108" NAMN="Vägga" AKTIV_R="J" VALDAG_R="2018-09-09" AKTIV_L="J" VALDAG_L="2018-09-09" AKTIV_K="J" VALDAG_K="2018-09-09" VALKRETS_K="00" VK_NAMN_K="Karlshamn" AKTIV_E="N" VALDAG_E="" LOKAL="Väggaskolan" ADRESS1="Foajén" ADRESS2="Väggavägen 2" ADRESS3="" TILLGÄNGL="" LOKAL_KLAR="J" STATUS="E" LATITUD="56.164076" LONGITUD="14.873376">
        <ÖPPETPASS DATUM="2018-09-09" PASS="08:00-20:00" />
      </VALDISTRIKT>
      <VALDISTRIKT KOD="0105" NAMN="Österslätt" AKTIV_R="J" VALDAG_R="2018-09-09" AKTIV_L="J" VALDAG_L="2018-09-09" AKTIV_K="J" VALDAG_K="2018-09-09" VALKRETS_K="00" VK_NAMN_K="Karlshamn" AKTIV_E="N" VALDAG_E="" LOKAL="Österslättskolans Café" ADRESS1="" ADRESS2="Erik Dahlbergsvägen 14" ADRESS3="" TILLGÄNGL="" LOKAL_KLAR="J" STATUS="E" LATITUD="56.168" LONGITUD="14.87224">
        <ÖPPETPASS DATUM="2018-09-09" PASS="08:00-20:00" />
      </VALDISTRIKT>
    </KOMMUN>
    <KOMMUN KOD="80" NAMN="Karlskrona" VALNAMND="Valnämnden i Karlskrona kommun" HEMSIDA="www.karlskrona.se" TELNR="0455-321926" KLAR="J">
      <VALDISTRIKT KOD="0430" NAMN="Aspö" AKTIV_R="J" VALDAG_R="2018-09-09" AKTIV_L="J" VALDAG_L="2018-09-09" AKTIV_K="J" VALDAG_K="2018-09-09" VALKRETS_K="03" VK_NAMN_K="Karlskrona C" AKTIV_E="N" VALDAG_E="" LOKAL="Aspöskolan" ADRESS1="" ADRESS2="Rydvägen 22" ADRESS3="" TILLGÄNGL="" LOKAL_KLAR="J" STATUS="E" LATITUD="56.110249" LONGITUD="15.546907">
        <ÖPPETPASS DATUM="2018-09-09" PASS="08:00-20:00" />
      </VALDISTRIKT>
      <VALDISTRIKT KOD="0139" NAMN="Bergåsa m.fl." AKTIV_R="J" VALDAG_R="2018-09-09" AKTIV_L="J" VALDAG_L="2018-09-09" AKTIV_K="J" VALDAG_K="2018-09-09" VALKRETS_K="03" VK_NAMN_K="Karlskrona C" AKTIV_E="N" VALDAG_E="" LOKAL="Blekinge Tekniska Högskola" ADRESS1="Receptionen Runda byggnaden" ADRESS2="Valhallavägen 1" ADRESS3="" TILLGÄNGL="" LOKAL_KLAR="J" STATUS="E" LATITUD="56.182204" LONGITUD="15.592719">
        <ÖPPETPASS DATUM="2018-09-09" PASS="08:00-20:00" />
      </VALDISTRIKT>
      <VALDISTRIKT KOD="1518" NAMN="Fridlevstad" AKTIV_R="J" VALDAG_R="2018-09-09" AKTIV_L="J" VALDAG_L="2018-09-09" AKTIV_K="J" VALDAG_K="2018-09-09" VALKRETS_K="02" VK_NAMN_K="Karlskrona V" AKTIV_E="N" VALDAG_E="" LOKAL="Fridlevstads Skola" ADRESS1="" ADRESS2="Skolvägen" ADRESS3="" TILLGÄNGL="" LOKAL_KLAR="J" STATUS="E" LATITUD="56.270329" LONGITUD="15.543097">
        <ÖPPETPASS DATUM="2018-09-09" PASS="08:00-20:00" />
      </VALDISTRIKT>
      <VALDISTRIKT KOD="0138" NAMN="Galgamarken" AKTIV_R="J" VALDAG_R="2018-09-09" AKTIV_L="J" VALDAG_L="2018-09-09" AKTIV_K="J" VALDAG_K="2018-09-09" VALKRETS_K="03" VK_NAMN_K="Karlskrona C" AKTIV_E="N" VALDAG_E="" LOKAL="Förskolan Blåport" ADRESS1="" ADRESS2="Blåportsgatan 11" ADRESS3="" TILLGÄNGL="" LOKAL_KLAR="J" STATUS="E" LATITUD="56.175089" LONGITUD="15.591518">
        <ÖPPETPASS DATUM="2018-09-09" PASS="08:00-20:00" />
      </VALDISTRIKT>
      <VALDISTRIKT KOD="1926" NAMN="Hasslö" AKTIV_R="J" VALDAG_R="2018-09-09" AKTIV_L="J" VALDAG_L="2018-09-09" AKTIV_K="J" VALDAG_K="2018-09-09" VALKRETS_K="02" VK_NAMN_K="Karlskrona V" AKTIV_E="N" VALDAG_E="" LOKAL="Hasslö PRO" ADRESS1="Gamla Konsum" ADRESS2="Hallarnavägen 2" ADRESS3="" TILLGÄNGL="" LOKAL_KLAR="J" STATUS="E" LATITUD="56.112417" LONGITUD="15.466827">
        <ÖPPETPASS DATUM="2018-09-09" PASS="08:00-20:00" />
      </VALDISTRIKT>
      <VALDISTRIKT KOD="0136" NAMN="Hogland m.fl." AKTIV_R="J" VALDAG_R="2018-09-09" AKTIV_L="J" VALDAG_L="2018-09-09" AKTIV_K="J" VALDAG_K="2018-09-09" VALKRETS_K="03" VK_NAMN_K="Karlskrona C" AKTIV_E="N" VALDAG_E="" LOKAL="Konserthusteatern" ADRESS1="" ADRESS2="Stortorget 16" ADRESS3="" TILLGÄNGL="" LOKAL_KLAR="J" STATUS="E" LATITUD="56.161813" LONGITUD="15.585299">
        <ÖPPETPASS DATUM="2018-09-09" PASS="08:00-20:00" />
      </VALDISTRIKT>
      <VALDISTRIKT KOD="0140" NAMN="Hästö" AKTIV_R="J" VALDAG_R="2018-09-09" AKTIV_L="J" VALDAG_L="2018-09-09" AKTIV_K="J" VALDAG_K="2018-09-09" VALKRETS_K="03" VK_NAMN_K="Karlskrona C" AKTIV_E="N" VALDAG_E="" LOKAL="Hästö skola" ADRESS1="Gymnastiksal" ADRESS2="Alebrunnsvägen 49" ADRESS3="" TILLGÄNGL="" LOKAL_KLAR="J" STATUS="E" LATITUD="56.180378" LONGITUD="15.618895">
        <ÖPPETPASS DATUM="2018-09-09" PASS="08:00-20:00" />
      </VALDISTRIKT>
      <VALDISTRIKT KOD="0903" NAMN="Jämjö N" AKTIV_R="J" VALDAG_R="2018-09-09" AKTIV_L="J" VALDAG_L="2018-09-09" AKTIV_K="J" VALDAG_K="2018-09-09" VALKRETS_K="01" VK_NAMN_K="Karlskrona Ö" AKTIV_E="N" VALDAG_E="" LOKAL="Kyrkskolan" ADRESS1="" ADRESS2="Riksvägen" ADRESS3="" TILLGÄNGL="" LOKAL_KLAR="J" STATUS="E" LATITUD="56.191609" LONGITUD="15.832599">
        <ÖPPETPASS DATUM="2018-09-09" PASS="08:00-20:00" />
      </VALDISTRIKT>
      <VALDISTRIKT KOD="0904" NAMN="Jämjö S" AKTIV_R="J" VALDAG_R="2018-09-09" AKTIV_L="J" VALDAG_L="2018-09-09" AKTIV_K="J" VALDAG_K="2018-09-09" VALKRETS_K="01" VK_NAMN_K="Karlskrona Ö" AKTIV_E="N" VALDAG_E="" LOKAL="Jämjö Bibliotek" ADRESS1="" ADRESS2="Centrumvägen 7" ADRESS3="" TILLGÄNGL="" LOKAL_KLAR="J" STATUS="E" LATITUD="56.190477" LONGITUD="15.834274">
        <ÖPPETPASS DATUM="2018-09-09" PASS="08:00-20:00" />
      </VALDISTRIKT>
      <VALDISTRIKT KOD="0801" NAMN="Kristianopel" AKTIV_R="J" VALDAG_R="2018-09-09" AKTIV_L="J" VALDAG_L="2018-09-09" AKTIV_K="J" VALDAG_K="2018-09-09" VALKRETS_K="01" VK_NAMN_K="Karlskrona Ö" AKTIV_E="N" VALDAG_E="" LOKAL="Församlingshemmet" ADRESS1="" ADRESS2="Storgatan 9" ADRESS3="" TILLGÄNGL="" LOKAL_KLAR="J" STATUS="E" LATITUD="56.256795" LONGITUD="16.04249">
        <ÖPPETPASS DATUM="2018-09-09" PASS="08:00-20:00" />
      </VALDISTRIKT>
      <VALDISTRIKT KOD="0508" NAMN="Kronotorp m.fl." AKTIV_R="J" VALDAG_R="2018-09-09" AKTIV_L="J" VALDAG_L="2018-09-09" AKTIV_K="J" VALDAG_K="2018-09-09" VALKRETS_K="01" VK_NAMN_K="Karlskrona Ö" AKTIV_E="N" VALDAG_E="" LOKAL="Lyckeby medborgarhus" ADRESS1="" ADRESS2="Riksvägen 37" ADRESS3="" TILLGÄNGL="" LOKAL_KLAR="J" STATUS="E" LATITUD="56.197549" LONGITUD="15.665111">
        <ÖPPETPASS DATUM="2018-09-09" PASS="08:00-20:00" />
      </VALDISTRIKT>
      <VALDISTRIKT KOD="0142" NAMN="Kungsmarken" AKTIV_R="J" VALDAG_R="2018-09-09" AKTIV_L="J" VALDAG_L="2018-09-09" AKTIV_K="J" VALDAG_K="2018-09-09" VALKRETS_K="02" VK_NAMN_K="Karlskrona V" AKTIV_E="N" VALDAG_E="" LOKAL="Panncentralen" ADRESS1="Folkets hus" ADRESS2="Kungsmarksvägen" ADRESS3="" TILLGÄNGL="" LOKAL_KLAR="J" STATUS="E" LATITUD="56.193764" LONGITUD="15.621311">
        <ÖPPETPASS DATUM="2018-09-09" PASS="08:00-20:00" />
      </VALDISTRIKT>
      <VALDISTRIKT KOD="0606" NAMN="Kättilsmåla" AKTIV_R="J" VALDAG_R="2018-09-09" AKTIV_L="J" VALDAG_L="2018-09-09" AKTIV_K="J" VALDAG_K="2018-09-09" VALKRETS_K="01" VK_NAMN_K="Karlskrona Ö" AKTIV_E="N" VALDAG_E="" LOKAL="Kättilsmåla Skola" ADRESS1="" ADRESS2="Kättilsmålavägen" ADRESS3="" TILLGÄNGL="" LOKAL_KLAR="J" STATUS="E" LATITUD="56.279732" LONGITUD="15.738055">
        <ÖPPETPASS DATUM="2018-09-09" PASS="08:00-20:00" />
      </VALDISTRIKT>
      <VALDISTRIKT KOD="0510" NAMN="Lyckeby V" AKTIV_R="J" VALDAG_R="2018-09-09" AKTIV_L="J" VALDAG_L="2018-09-09" AKTIV_K="J" VALDAG_K="2018-09-09" VALKRETS_K="01" VK_NAMN_K="Karlskrona Ö" AKTIV_E="N" VALDAG_E="" LOKAL="Kultur- och fritidshuset" ADRESS1="Gamla ÖoBs lokaler" ADRESS2="Källevägen   1" ADRESS3="" TILLGÄNGL="" LOKAL_KLAR="J" STATUS="E" LATITUD="56.197522" LONGITUD="15.658039">
        <ÖPPETPASS DATUM="2018-09-09" PASS="08:00-20:00" />
      </VALDISTRIKT>
      <VALDISTRIKT KOD="0611" NAMN="Lyckeby Ö" AKTIV_R="J" VALDAG_R="2018-09-09" AKTIV_L="J" VALDAG_L="2018-09-09" AKTIV_K="J" VALDAG_K="2018-09-09" VALKRETS_K="01" VK_NAMN_K="Karlskrona Ö" AKTIV_E="N" VALDAG_E="" LOKAL="Östra Torpskolan" ADRESS1="" ADRESS2="Torpvägen 1" ADRESS3="" TILLGÄNGL="" LOKAL_KLAR="J" STATUS="E" LATITUD="56.195617" LONGITUD="15.672174">
        <ÖPPETPASS DATUM="2018-09-09" PASS="08:00-20:00" />
      </VALDISTRIKT>
      <VALDISTRIKT KOD="0127" NAMN="Långö-Gräsvik" AKTIV_R="J" VALDAG_R="2018-09-09" AKTIV_L="J" VALDAG_L="2018-09-09" AKTIV_K="J" VALDAG_K="2018-09-09" VALKRETS_K="03" VK_NAMN_K="Karlskrona C" AKTIV_E="N" VALDAG_E="" LOKAL="Äldreboende Fregatten" ADRESS1="" ADRESS2="Pantarholmskajen 18" ADRESS3="" TILLGÄNGL="" LOKAL_KLAR="J" STATUS="E" LATITUD="56.172866" LONGITUD="15.586425">
        <ÖPPETPASS DATUM="2018-09-09" PASS="08:00-20:00" />
      </VALDISTRIKT>
      <VALDISTRIKT KOD="0141" NAMN="Marieberg m.fl." AKTIV_R="J" VALDAG_R="2018-09-09" AKTIV_L="J" VALDAG_L="2018-09-09" AKTIV_K="J" VALDAG_K="2018-09-09" VALKRETS_K="02" VK_NAMN_K="Karlskrona V" AKTIV_E="N" VALDAG_E="" LOKAL="Sunnadalsskolan" ADRESS1="Matsalen" ADRESS2="Sunnadalsvägen" ADRESS3="" TILLGÄNGL="" LOKAL_KLAR="J" STATUS="E" LATITUD="56.19336" LONGITUD="15.615643">
        <ÖPPETPASS DATUM="2018-09-09" PASS="08:00-20:00" />
      </VALDISTRIKT>
      <VALDISTRIKT KOD="0143" NAMN="Mariedal-Backabo" AKTIV_R="J" VALDAG_R="2018-09-09" AKTIV_L="J" VALDAG_L="2018-09-09" AKTIV_K="J" VALDAG_K="2018-09-09" VALKRETS_K="02" VK_NAMN_K="Karlskrona V" AKTIV_E="N" VALDAG_E="" LOKAL="Ekliden" ADRESS1="" ADRESS2="Hillerödsvägen 35" ADRESS3="" TILLGÄNGL="" LOKAL_KLAR="J" STATUS="E" LATITUD="56.200248" LONGITUD="15.615431">
        <ÖPPETPASS DATUM="2018-09-09" PASS="08:00-20:00" />
      </VALDISTRIKT>
      <VALDISTRIKT KOD="0134" NAMN="Möllebacken m.fl." AKTIV_R="J" VALDAG_R="2018-09-09" AKTIV_L="J" VALDAG_L="2018-09-09" AKTIV_K="J" VALDAG_K="2018-09-09" VALKRETS_K="03" VK_NAMN_K="Karlskrona C" AKTIV_E="N" VALDAG_E="" LOKAL="Ehrensvärdska gymnasiet" ADRESS1="Matsalen" ADRESS2="Östra Köpmansgatan 26" ADRESS3="" TILLGÄNGL="" LOKAL_KLAR="J" STATUS="E" LATITUD="56.164576" LONGITUD="15.583368">
        <ÖPPETPASS DATUM="2018-09-09" PASS="08:00-20:00" />
      </VALDISTRIKT>
      <VALDISTRIKT KOD="1844" NAMN="Nättraby S" AKTIV_R="J" VALDAG_R="2018-09-09" AKTIV_L="J" VALDAG_L="2018-09-09" AKTIV_K="J" VALDAG_K="2018-09-09" VALKRETS_K="02" VK_NAMN_K="Karlskrona V" AKTIV_E="N" VALDAG_E="" LOKAL="Folkets hus" ADRESS1="" ADRESS2="Parkvägen 16" ADRESS3="" TILLGÄNGL="" LOKAL_KLAR="J" STATUS="E" LATITUD="56.196719" LONGITUD="15.525881">
        <ÖPPETPASS DATUM="2018-09-09" PASS="08:00-20:00" />
      </VALDISTRIKT>
      <VALDISTRIKT KOD="1824" NAMN="Nättraby V" AKTIV_R="J" VALDAG_R="2018-09-09" AKTIV_L="J" VALDAG_L="2018-09-09" AKTIV_K="J" VALDAG_K="2018-09-09" VALKRETS_K="02" VK_NAMN_K="Karlskrona V" AKTIV_E="N" VALDAG_E="" LOKAL="Nättraby Skola" ADRESS1="Matsalen" ADRESS2="Fredrikdalsvägen 37" ADRESS3="" TILLGÄNGL="" LOKAL_KLAR="J" STATUS="E" LATITUD="56.203961" LONGITUD="15.5276">
        <ÖPPETPASS DATUM="2018-09-09" PASS="08:00-20:00" />
      </VALDISTRIKT>
      <VALDISTRIKT KOD="1825" NAMN="Nättraby Ö" AKTIV_R="J" VALDAG_R="2018-09-09" AKTIV_L="J" VALDAG_L="2018-09-09" AKTIV_K="J" VALDAG_K="2018-09-09" VALKRETS_K="02" VK_NAMN_K="Karlskrona V" AKTIV_E="N" VALDAG_E="" LOKAL="Nättraby Skola" ADRESS1="Matsalen" ADRESS2="Fredriksdalsvägen 37" ADRESS3="" TILLGÄNGL="" LOKAL_KLAR="J" STATUS="E" LATITUD="56.203396" LONGITUD="15.527733">
        <ÖPPETPASS DATUM="2018-09-09" PASS="08:00-20:00" />
      </VALDISTRIKT>
      <VALDISTRIKT KOD="0137" NAMN="Pantarholmen" AKTIV_R="J" VALDAG_R="2018-09-09" AKTIV_L="J" VALDAG_L="2018-09-09" AKTIV_K="J" VALDAG_K="2018-09-09" VALKRETS_K="03" VK_NAMN_K="Karlskrona C" AKTIV_E="N" VALDAG_E="" LOKAL="Tullskolan" ADRESS1="Matsalen" ADRESS2="Polhemsgatan 2" ADRESS3="" TILLGÄNGL="" LOKAL_KLAR="J" STATUS="E" LATITUD="56.175089" LONGITUD="15.591518">
        <ÖPPETPASS DATUM="2018-09-09" PASS="08:00-20:00" />
      </VALDISTRIKT>
      <VALDISTRIKT KOD="1205" NAMN="Ramdala" AKTIV_R="J" VALDAG_R="2018-09-09" AKTIV_L="J" VALDAG_L="2018-09-09" AKTIV_K="J" VALDAG_K="2018-09-09" VALKRETS_K="01" VK_NAMN_K="Karlskrona Ö" AKTIV_E="N" VALDAG_E="" LOKAL="Ramdala Skola" ADRESS1="" ADRESS2="Egnahemsvägen 4" ADRESS3="" TILLGÄNGL="" LOKAL_KLAR="J" STATUS="E" LATITUD="56.183316" LONGITUD="15.767309">
        <ÖPPETPASS DATUM="2018-09-09" PASS="08:00-20:00" />
      </VALDISTRIKT>
      <VALDISTRIKT KOD="0132" NAMN="Rosenfeldt m.fl." AKTIV_R="J" VALDAG_R="2018-09-09" AKTIV_L="J" VALDAG_L="2018-09-09" AKTIV_K="J" VALDAG_K="2018-09-09" VALKRETS_K="03" VK_NAMN_K="Karlskrona C" AKTIV_E="N" VALDAG_E="" LOKAL="Rosenfeldtskolan" ADRESS1="Alamedan" ADRESS2="Amiralitetstorget 12-14" ADRESS3="" TILLGÄNGL="" LOKAL_KLAR="J" STATUS="E" LATITUD="56.158836" LONGITUD="15.588213">
        <ÖPPETPASS DATUM="2018-09-09" PASS="08:00-20:00" />
      </VALDISTRIKT>
      <VALDISTRIKT KOD="1422" NAMN="Rödeby N" AKTIV_R="J" VALDAG_R="2018-09-09" AKTIV_L="J" VALDAG_L="2018-09-09" AKTIV_K="J" VALDAG_K="2018-09-09" VALKRETS_K="02" VK_NAMN_K="Karlskrona V" AKTIV_E="N" VALDAG_E="" LOKAL="Rödebyskolan" ADRESS1="Matsal" ADRESS2="Rödebyvägen 42C" ADRESS3="" TILLGÄNGL="" LOKAL_KLAR="J" STATUS="E" LATITUD="56.263887" LONGITUD="15.621134">
        <ÖPPETPASS DATUM="2018-09-09" PASS="08:00-20:00" />
      </VALDISTRIKT>
      <VALDISTRIKT KOD="1423" NAMN="Rödeby S" AKTIV_R="J" VALDAG_R="2018-09-09" AKTIV_L="J" VALDAG_L="2018-09-09" AKTIV_K="J" VALDAG_K="2018-09-09" VALKRETS_K="02" VK_NAMN_K="Karlskrona V" AKTIV_E="N" VALDAG_E="" LOKAL="Rödeby Bibliotek" ADRESS1="Rödebyanläggningen" ADRESS2="" ADRESS3="" TILLGÄNGL="" LOKAL_KLAR="J" STATUS="E" LATITUD="56.263887" LONGITUD="15.621134">
        <ÖPPETPASS DATUM="2018-09-09" PASS="08:00-20:00" />
      </VALDISTRIKT>
      <VALDISTRIKT KOD="0128" NAMN="Saltö-Björkholmen" AKTIV_R="J" VALDAG_R="2018-09-09" AKTIV_L="J" VALDAG_L="2018-09-09" AKTIV_K="J" VALDAG_K="2018-09-09" VALKRETS_K="03" VK_NAMN_K="Karlskrona C" AKTIV_E="N" VALDAG_E="" LOKAL="Saltöskolan, gymnastiksal" ADRESS1="" ADRESS2="Ivögatan 1" ADRESS3="" TILLGÄNGL="" LOKAL_KLAR="J" STATUS="E" LATITUD="56.162523" LONGITUD="15.575783">
        <ÖPPETPASS DATUM="2018-09-09" PASS="08:00-20:00" />
      </VALDISTRIKT>
      <VALDISTRIKT KOD="1616" NAMN="Sillhövda" AKTIV_R="J" VALDAG_R="2018-09-09" AKTIV_L="J" VALDAG_L="2018-09-09" AKTIV_K="J" VALDAG_K="2018-09-09" VALKRETS_K="02" VK_NAMN_K="Karlskrona V" AKTIV_E="N" VALDAG_E="" LOKAL="Holmsjö skola" ADRESS1="" ADRESS2="Skolvägen 3" ADRESS3="" TILLGÄNGL="" LOKAL_KLAR="J" STATUS="E" LATITUD="56.414022" LONGITUD="15.538995">
        <ÖPPETPASS DATUM="2018-09-09" PASS="08:00-20:00" />
      </VALDISTRIKT>
      <VALDISTRIKT KOD="0612" NAMN="Spandelstorp m.fl." AKTIV_R="J" VALDAG_R="2018-09-09" AKTIV_L="J" VALDAG_L="2018-09-09" AKTIV_K="J" VALDAG_K="2018-09-09" VALKRETS_K="01" VK_NAMN_K="Karlskrona Ö" AKTIV_E="N" VALDAG_E="" LOKAL="Spandelstorps Skola" ADRESS1="Matsalen" ADRESS2="Spandelstorpsvägen" ADRESS3="" TILLGÄNGL="" LOKAL_KLAR="J" STATUS="E" LATITUD="56.214222" LONGITUD="15.653913">
        <ÖPPETPASS DATUM="2018-09-09" PASS="08:00-20:00" />
      </VALDISTRIKT>
      <VALDISTRIKT KOD="1421" NAMN="Strömsberg" AKTIV_R="J" VALDAG_R="2018-09-09" AKTIV_L="J" VALDAG_L="2018-09-09" AKTIV_K="J" VALDAG_K="2018-09-09" VALKRETS_K="02" VK_NAMN_K="Karlskrona V" AKTIV_E="N" VALDAG_E="" LOKAL="Strömsbergs Skola" ADRESS1="Bygdegården" ADRESS2="" ADRESS3="" TILLGÄNGL="" LOKAL_KLAR="J" STATUS="E" LATITUD="56.325525" LONGITUD="15.64854">
        <ÖPPETPASS DATUM="2018-09-09" PASS="08:00-20:00" />
      </VALDISTRIKT>
      <VALDISTRIKT KOD="1107" NAMN="Sturkö" AKTIV_R="J" VALDAG_R="2018-09-09" AKTIV_L="J" VALDAG_L="2018-09-09" AKTIV_K="J" VALDAG_K="2018-09-09" VALKRETS_K="01" VK_NAMN_K="Karlskrona Ö" AKTIV_E="N" VALDAG_E="" LOKAL="Sturkö Skola" ADRESS1="" ADRESS2="Kyrkvägen 1" ADRESS3="" TILLGÄNGL="" LOKAL_KLAR="J" STATUS="E" LATITUD="56.112075" LONGITUD="15.681385">
        <ÖPPETPASS DATUM="2018-09-09" PASS="08:00-20:00" />
      </VALDISTRIKT>
      <VALDISTRIKT KOD="1002" NAMN="Torhamn" AKTIV_R="J" VALDAG_R="2018-09-09" AKTIV_L="J" VALDAG_L="2018-09-09" AKTIV_K="J" VALDAG_K="2018-09-09" VALKRETS_K="01" VK_NAMN_K="Karlskrona Ö" AKTIV_E="N" VALDAG_E="" LOKAL="Torhamnsgården" ADRESS1="" ADRESS2="Sandhamnsvägen 57" ADRESS3="" TILLGÄNGL="" LOKAL_KLAR="J" STATUS="E" LATITUD="56.094649" LONGITUD="15.834525">
        <ÖPPETPASS DATUM="2018-09-09" PASS="08:00-20:00" />
      </VALDISTRIKT>
      <VALDISTRIKT KOD="0613" NAMN="Torskors-Hässlegården" AKTIV_R="J" VALDAG_R="2018-09-09" AKTIV_L="J" VALDAG_L="2018-09-09" AKTIV_K="J" VALDAG_K="2018-09-09" VALKRETS_K="01" VK_NAMN_K="Karlskrona Ö" AKTIV_E="N" VALDAG_E="" LOKAL="Norrskenet" ADRESS1="Fritidsgård" ADRESS2="Norrskensgatan 17" ADRESS3="" TILLGÄNGL="" LOKAL_KLAR="J" STATUS="E" LATITUD="56.222666" LONGITUD="15.66302">
        <ÖPPETPASS DATUM="2018-09-09" PASS="08:00-20:00" />
      </VALDISTRIKT>
      <VALDISTRIKT KOD="0133" NAMN="Trossö Ö" AKTIV_R="J" VALDAG_R="2018-09-09" AKTIV_L="J" VALDAG_L="2018-09-09" AKTIV_K="J" VALDAG_K="2018-09-09" VALKRETS_K="03" VK_NAMN_K="Karlskrona C" AKTIV_E="N" VALDAG_E="" LOKAL="Af Chapmangymnasiet" ADRESS1="Ingång Skolgården, Musiksal" ADRESS2="Drottninggatan 49" ADRESS3="" TILLGÄNGL="" LOKAL_KLAR="J" STATUS="E" LATITUD="56.164182" LONGITUD="15.589229">
        <ÖPPETPASS DATUM="2018-09-09" PASS="08:00-20:00" />
      </VALDISTRIKT>
      <VALDISTRIKT KOD="1720" NAMN="Tving" AKTIV_R="J" VALDAG_R="2018-09-09" AKTIV_L="J" VALDAG_L="2018-09-09" AKTIV_K="J" VALDAG_K="2018-09-09" VALKRETS_K="02" VK_NAMN_K="Karlskrona V" AKTIV_E="N" VALDAG_E="" LOKAL="Tvings Skola" ADRESS1="Fritidslokalen" ADRESS2="" ADRESS3="" TILLGÄNGL="" LOKAL_KLAR="J" STATUS="E" LATITUD="56.306975" LONGITUD="15.467187">
        <ÖPPETPASS DATUM="2018-09-09" PASS="08:00-20:00" />
      </VALDISTRIKT>
      <VALDISTRIKT KOD="0509" NAMN="Verkö m.fl." AKTIV_R="J" VALDAG_R="2018-09-09" AKTIV_L="J" VALDAG_L="2018-09-09" AKTIV_K="J" VALDAG_K="2018-09-09" VALKRETS_K="01" VK_NAMN_K="Karlskrona Ö" AKTIV_E="N" VALDAG_E="" LOKAL="Verkö Skola" ADRESS1="" ADRESS2="Södra Backen 1" ADRESS3="" TILLGÄNGL="" LOKAL_KLAR="J" STATUS="E" LATITUD="56.172483" LONGITUD="15.64334">
        <ÖPPETPASS DATUM="2018-09-09" PASS="08:00-20:00" />
      </VALDISTRIKT>
      <VALDISTRIKT KOD="0131" NAMN="Västerudd" AKTIV_R="J" VALDAG_R="2018-09-09" AKTIV_L="J" VALDAG_L="2018-09-09" AKTIV_K="J" VALDAG_K="2018-09-09" VALKRETS_K="03" VK_NAMN_K="Karlskrona C" AKTIV_E="N" VALDAG_E="" LOKAL="Stadsbiblioteket, hörsalen" ADRESS1="" ADRESS2="Borgmästaregatan 8" ADRESS3="" TILLGÄNGL="" LOKAL_KLAR="J" STATUS="E" LATITUD="56.162505" LONGITUD="15.575799">
        <ÖPPETPASS DATUM="2018-09-09" PASS="08:00-20:00" />
      </VALDISTRIKT>
      <VALDISTRIKT KOD="0135" NAMN="Wachtmeister m.fl." AKTIV_R="J" VALDAG_R="2018-09-09" AKTIV_L="J" VALDAG_L="2018-09-09" AKTIV_K="J" VALDAG_K="2018-09-09" VALKRETS_K="03" VK_NAMN_K="Karlskrona C" AKTIV_E="N" VALDAG_E="" LOKAL="Stadsbiblioteket" ADRESS1="Receptionen" ADRESS2="Stortorget 15" ADRESS3="" TILLGÄNGL="" LOKAL_KLAR="J" STATUS="E" LATITUD="56.160923" LONGITUD="15.58487">
        <ÖPPETPASS DATUM="2018-09-09" PASS="08:00-20:00" />
      </VALDISTRIKT>
    </KOMMUN>
    <KOMMUN KOD="60" NAMN="Olofström" VALNAMND="Valnämnden i Olofströms kommun" HEMSIDA="www.olofstrom.se" TELNR="0454-93000" KLAR="J">
      <VALDISTRIKT KOD="0104" NAMN="Brännaregården-Gränum norra" AKTIV_R="J" VALDAG_R="2018-09-09" AKTIV_L="J" VALDAG_L="2018-09-09" AKTIV_K="J" VALDAG_K="2018-09-09" VALKRETS_K="00" VK_NAMN_K="Olofström" AKTIV_E="N" VALDAG_E="" LOKAL="Brännaregårdsskolan" ADRESS1="Matsalen" ADRESS2="Vikingavägen 10" ADRESS3="" TILLGÄNGL="" LOKAL_KLAR="J" STATUS="E" LATITUD="56.280364" LONGITUD="14.545959">
        <ÖPPETPASS DATUM="2018-09-09" PASS="08:00-20:00" />
      </VALDISTRIKT>
      <VALDISTRIKT KOD="0105" NAMN="Ekeryd" AKTIV_R="J" VALDAG_R="2018-09-09" AKTIV_L="J" VALDAG_L="2018-09-09" AKTIV_K="J" VALDAG_K="2018-09-09" VALKRETS_K="00" VK_NAMN_K="Olofström" AKTIV_E="N" VALDAG_E="" LOKAL="Ekerydsskolan" ADRESS1="Matsalen" ADRESS2="Ekerydsplan 8" ADRESS3="" TILLGÄNGL="" LOKAL_KLAR="J" STATUS="E" LATITUD="56.27326" LONGITUD="14.53842">
        <ÖPPETPASS DATUM="2018-09-09" PASS="08:00-20:00" />
      </VALDISTRIKT>
      <VALDISTRIKT KOD="0103" NAMN="Jämshög-Gränum södra" AKTIV_R="J" VALDAG_R="2018-09-09" AKTIV_L="J" VALDAG_L="2018-09-09" AKTIV_K="J" VALDAG_K="2018-09-09" VALKRETS_K="00" VK_NAMN_K="Olofström" AKTIV_E="N" VALDAG_E="" LOKAL="Jämshögs skola" ADRESS1="Matsalen" ADRESS2="De Ungas väg 8" ADRESS3="" TILLGÄNGL="" LOKAL_KLAR="J" STATUS="E" LATITUD="56.240634" LONGITUD="14.526198">
        <ÖPPETPASS DATUM="2018-09-09" PASS="08:00-20:00" />
      </VALDISTRIKT>
      <VALDISTRIKT KOD="0102" NAMN="Kyrkhult-Hemsjö" AKTIV_R="J" VALDAG_R="2018-09-09" AKTIV_L="J" VALDAG_L="2018-09-09" AKTIV_K="J" VALDAG_K="2018-09-09" VALKRETS_K="00" VK_NAMN_K="Olofström" AKTIV_E="N" VALDAG_E="" LOKAL="Kyrkhults skola" ADRESS1="Matsalen" ADRESS2="Olofströmsvägen 23" ADRESS3="" TILLGÄNGL="" LOKAL_KLAR="J" STATUS="E" LATITUD="56.351635" LONGITUD="14.587131">
        <ÖPPETPASS DATUM="2018-09-09" PASS="08:00-20:00" />
      </VALDISTRIKT>
      <VALDISTRIKT KOD="0106" NAMN="Oredslund" AKTIV_R="J" VALDAG_R="2018-09-09" AKTIV_L="J" VALDAG_L="2018-09-09" AKTIV_K="J" VALDAG_K="2018-09-09" VALKRETS_K="00" VK_NAMN_K="Olofström" AKTIV_E="N" VALDAG_E="" LOKAL="Högavångsskolan" ADRESS1="Foajén" ADRESS2="Jämshögsvägen 3" ADRESS3="" TILLGÄNGL="" LOKAL_KLAR="J" STATUS="E" LATITUD="56.275755" LONGITUD="14.528597">
        <ÖPPETPASS DATUM="2018-09-09" PASS="08:00-20:00" />
      </VALDISTRIKT>
      <VALDISTRIKT KOD="0107" NAMN="Petrefors" AKTIV_R="J" VALDAG_R="2018-09-09" AKTIV_L="J" VALDAG_L="2018-09-09" AKTIV_K="J" VALDAG_K="2018-09-09" VALKRETS_K="00" VK_NAMN_K="Olofström" AKTIV_E="N" VALDAG_E="" LOKAL="Folkets Hus" ADRESS1="" ADRESS2="Östra Storgatan 24" ADRESS3="" TILLGÄNGL="" LOKAL_KLAR="J" STATUS="E" LATITUD="56.277709" LONGITUD="14.52661">
        <ÖPPETPASS DATUM="2018-09-09" PASS="08:00-20:00" />
      </VALDISTRIKT>
      <VALDISTRIKT KOD="0101" NAMN="Vilboken-Vilshult" AKTIV_R="J" VALDAG_R="2018-09-09" AKTIV_L="J" VALDAG_L="2018-09-09" AKTIV_K="J" VALDAG_K="2018-09-09" VALKRETS_K="00" VK_NAMN_K="Olofström" AKTIV_E="N" VALDAG_E="" LOKAL="Vilboksskolan" ADRESS1="Matsalen" ADRESS2="Timmermansgatan 11" ADRESS3="" TILLGÄNGL="" LOKAL_KLAR="J" STATUS="E" LATITUD="56.282305" LONGITUD="14.508449">
        <ÖPPETPASS DATUM="2018-09-09" PASS="08:00-20:00" />
      </VALDISTRIKT>
    </KOMMUN>
    <KOMMUN KOD="81" NAMN="Ronneby" VALNAMND="Valnämnden i Ronneby kommun" HEMSIDA="www.ronneby.se" TELNR="0457- 61 84 60" KLAR="J">
      <VALDISTRIKT KOD="0314" NAMN="Backaryd-Öljehult" AKTIV_R="J" VALDAG_R="2018-09-09" AKTIV_L="J" VALDAG_L="2018-09-09" AKTIV_K="J" VALDAG_K="2018-09-09" VALKRETS_K="00" VK_NAMN_K="Ronneby" AKTIV_E="N" VALDAG_E="" LOKAL="Reginalokalen" ADRESS1="" ADRESS2="Reginavägen 7" ADRESS3="" TILLGÄNGL="" LOKAL_KLAR="J" STATUS="E" LATITUD="56.346624" LONGITUD="15.15108">
        <ÖPPETPASS DATUM="2018-09-09" PASS="08:00-20:00" />
      </VALDISTRIKT>
      <VALDISTRIKT KOD="0104" NAMN="Blekan" AKTIV_R="J" VALDAG_R="2018-09-09" AKTIV_L="J" VALDAG_L="2018-09-09" AKTIV_K="J" VALDAG_K="2018-09-09" VALKRETS_K="00" VK_NAMN_K="Ronneby" AKTIV_E="N" VALDAG_E="" LOKAL="Gymnasieskolan Knut Hahn" ADRESS1="Foajén" ADRESS2="Blasius Königsgatan 27" ADRESS3="" TILLGÄNGL="" LOKAL_KLAR="J" STATUS="E" LATITUD="56.202819" LONGITUD="15.272748">
        <ÖPPETPASS DATUM="2018-09-09" PASS="08:00-20:00" />
      </VALDISTRIKT>
      <VALDISTRIKT KOD="1021" NAMN="Bräkne-Hoby Landsbygd" AKTIV_R="J" VALDAG_R="2018-09-09" AKTIV_L="J" VALDAG_L="2018-09-09" AKTIV_K="J" VALDAG_K="2018-09-09" VALKRETS_K="00" VK_NAMN_K="Ronneby" AKTIV_E="N" VALDAG_E="" LOKAL="Hobyskolan" ADRESS1="Matsalen" ADRESS2="Häradsvägen 10" ADRESS3="" TILLGÄNGL="" LOKAL_KLAR="J" STATUS="E" LATITUD="56.2278" LONGITUD="15.118977">
        <ÖPPETPASS DATUM="2018-09-09" PASS="08:00-20:00" />
      </VALDISTRIKT>
      <VALDISTRIKT KOD="1022" NAMN="Bräkne-Hoby Samhälle" AKTIV_R="J" VALDAG_R="2018-09-09" AKTIV_L="J" VALDAG_L="2018-09-09" AKTIV_K="J" VALDAG_K="2018-09-09" VALKRETS_K="00" VK_NAMN_K="Ronneby" AKTIV_E="N" VALDAG_E="" LOKAL="Hobyskolan" ADRESS1="Idrottshallen" ADRESS2="Dammavägen 1" ADRESS3="" TILLGÄNGL="" LOKAL_KLAR="J" STATUS="E" LATITUD="56.22715" LONGITUD="15.119843">
        <ÖPPETPASS DATUM="2018-09-09" PASS="08:00-20:00" />
      </VALDISTRIKT>
      <VALDISTRIKT KOD="0101" NAMN="Centrum" AKTIV_R="J" VALDAG_R="2018-09-09" AKTIV_L="J" VALDAG_L="2018-09-09" AKTIV_K="J" VALDAG_K="2018-09-09" VALKRETS_K="00" VK_NAMN_K="Ronneby" AKTIV_E="N" VALDAG_E="" LOKAL="Stadshuset" ADRESS1="Listerbysalen" ADRESS2="Karlshamnsvägen 4" ADRESS3="" TILLGÄNGL="" LOKAL_KLAR="J" STATUS="E" LATITUD="56.213075" LONGITUD="15.272606">
        <ÖPPETPASS DATUM="2018-09-09" PASS="08:00-20:00" />
      </VALDISTRIKT>
      <VALDISTRIKT KOD="0106" NAMN="Espedalen" AKTIV_R="J" VALDAG_R="2018-09-09" AKTIV_L="J" VALDAG_L="2018-09-09" AKTIV_K="J" VALDAG_K="2018-09-09" VALKRETS_K="00" VK_NAMN_K="Ronneby" AKTIV_E="N" VALDAG_E="" LOKAL="Espedalsskolan" ADRESS1="Matsalen" ADRESS2="Gadds Väg 2" ADRESS3="" TILLGÄNGL="" LOKAL_KLAR="J" STATUS="E" LATITUD="56.205556" LONGITUD="15.261914">
        <ÖPPETPASS DATUM="2018-09-09" PASS="08:00-20:00" />
      </VALDISTRIKT>
      <VALDISTRIKT KOD="0102" NAMN="Fredriksberg" AKTIV_R="J" VALDAG_R="2018-09-09" AKTIV_L="J" VALDAG_L="2018-09-09" AKTIV_K="J" VALDAG_K="2018-09-09" VALKRETS_K="00" VK_NAMN_K="Ronneby" AKTIV_E="N" VALDAG_E="" LOKAL="Soft Center" ADRESS1="Kunskapskällan - Andromeda" ADRESS2="Fridhemsvägen 19" ADRESS3="" TILLGÄNGL="" LOKAL_KLAR="J" STATUS="E" LATITUD="56.198181" LONGITUD="15.288386">
        <ÖPPETPASS DATUM="2018-09-09" PASS="08:00-20:00" />
      </VALDISTRIKT>
      <VALDISTRIKT KOD="0617" NAMN="Förkärla-Listerby N" AKTIV_R="J" VALDAG_R="2018-09-09" AKTIV_L="J" VALDAG_L="2018-09-09" AKTIV_K="J" VALDAG_K="2018-09-09" VALKRETS_K="00" VK_NAMN_K="Ronneby" AKTIV_E="N" VALDAG_E="" LOKAL="Listerby bibliotek" ADRESS1="" ADRESS2="Abergavägen 5" ADRESS3="" TILLGÄNGL="" LOKAL_KLAR="J" STATUS="E" LATITUD="56.188462" LONGITUD="15.396046">
        <ÖPPETPASS DATUM="2018-09-09" PASS="08:00-20:00" />
      </VALDISTRIKT>
      <VALDISTRIKT KOD="0110" NAMN="Hasselstad-Eringsboda" AKTIV_R="J" VALDAG_R="2018-09-09" AKTIV_L="J" VALDAG_L="2018-09-09" AKTIV_K="J" VALDAG_K="2018-09-09" VALKRETS_K="00" VK_NAMN_K="Ronneby" AKTIV_E="N" VALDAG_E="" LOKAL="Bredåkra begravningslokal" ADRESS1="Vid Bredåkra Kyrka" ADRESS2="Eringsbodavägen 3A" ADRESS3="" TILLGÄNGL="" LOKAL_KLAR="J" STATUS="E" LATITUD="56.254006" LONGITUD="15.251079">
        <ÖPPETPASS DATUM="2018-09-09" PASS="08:00-20:00" />
      </VALDISTRIKT>
      <VALDISTRIKT KOD="0920" NAMN="Hjortsberga-Edestad" AKTIV_R="J" VALDAG_R="2018-09-09" AKTIV_L="J" VALDAG_L="2018-09-09" AKTIV_K="J" VALDAG_K="2018-09-09" VALKRETS_K="00" VK_NAMN_K="Ronneby" AKTIV_E="N" VALDAG_E="" LOKAL="Rydsgården" ADRESS1="" ADRESS2="Grevavägen 35" ADRESS3="" TILLGÄNGL="" LOKAL_KLAR="J" STATUS="E" LATITUD="56.223723" LONGITUD="15.424655">
        <ÖPPETPASS DATUM="2018-09-09" PASS="08:00-20:00" />
      </VALDISTRIKT>
      <VALDISTRIKT KOD="0103" NAMN="Hulta" AKTIV_R="J" VALDAG_R="2018-09-09" AKTIV_L="J" VALDAG_L="2018-09-09" AKTIV_K="J" VALDAG_K="2018-09-09" VALKRETS_K="00" VK_NAMN_K="Ronneby" AKTIV_E="N" VALDAG_E="" LOKAL="Soft Center" ADRESS1="Kunskapskällan - Cassiopeia" ADRESS2="Fridhemsvägen 19" ADRESS3="" TILLGÄNGL="" LOKAL_KLAR="J" STATUS="E" LATITUD="56.198181" LONGITUD="15.288386">
        <ÖPPETPASS DATUM="2018-09-09" PASS="08:00-20:00" />
      </VALDISTRIKT>
      <VALDISTRIKT KOD="0111" NAMN="Häggatorp" AKTIV_R="J" VALDAG_R="2018-09-09" AKTIV_L="J" VALDAG_L="2018-09-09" AKTIV_K="J" VALDAG_K="2018-09-09" VALKRETS_K="00" VK_NAMN_K="Ronneby" AKTIV_E="N" VALDAG_E="" LOKAL="Kallingeskolan" ADRESS1="Norra ingången, foajén" ADRESS2="Tivolivägen 1" ADRESS3="" TILLGÄNGL="" LOKAL_KLAR="J" STATUS="E" LATITUD="56.244643" LONGITUD="15.28299">
        <ÖPPETPASS DATUM="2018-09-09" PASS="08:00-20:00" />
      </VALDISTRIKT>
      <VALDISTRIKT KOD="0112" NAMN="Kalleberga" AKTIV_R="J" VALDAG_R="2018-09-09" AKTIV_L="J" VALDAG_L="2018-09-09" AKTIV_K="J" VALDAG_K="2018-09-09" VALKRETS_K="00" VK_NAMN_K="Ronneby" AKTIV_E="N" VALDAG_E="" LOKAL="Kallinge Folkets Hus" ADRESS1="" ADRESS2="Brantaforsv. 10" ADRESS3="" TILLGÄNGL="" LOKAL_KLAR="J" STATUS="E" LATITUD="56.247725" LONGITUD="15.287561">
        <ÖPPETPASS DATUM="2018-09-09" PASS="08:00-20:00" />
      </VALDISTRIKT>
      <VALDISTRIKT KOD="0113" NAMN="Kallinge" AKTIV_R="J" VALDAG_R="2018-09-09" AKTIV_L="J" VALDAG_L="2018-09-09" AKTIV_K="J" VALDAG_K="2018-09-09" VALKRETS_K="00" VK_NAMN_K="Ronneby" AKTIV_E="N" VALDAG_E="" LOKAL="Slättagårdsskolan" ADRESS1="Matsalen" ADRESS2="Lindvägen 9" ADRESS3="" TILLGÄNGL="" LOKAL_KLAR="J" STATUS="E" LATITUD="56.238164" LONGITUD="15.290706">
        <ÖPPETPASS DATUM="2018-09-09" PASS="08:00-20:00" />
      </VALDISTRIKT>
      <VALDISTRIKT KOD="0718" NAMN="Listerby S" AKTIV_R="J" VALDAG_R="2018-09-09" AKTIV_L="J" VALDAG_L="2018-09-09" AKTIV_K="J" VALDAG_K="2018-09-09" VALKRETS_K="00" VK_NAMN_K="Ronneby" AKTIV_E="N" VALDAG_E="" LOKAL="Kuggeboda skola" ADRESS1="Gymnastiksalen" ADRESS2="Kuggebodavägen 136" ADRESS3="" TILLGÄNGL="" LOKAL_KLAR="J" STATUS="E" LATITUD="56.139938" LONGITUD="15.365276">
        <ÖPPETPASS DATUM="2018-09-09" PASS="08:00-20:00" />
      </VALDISTRIKT>
      <VALDISTRIKT KOD="0105" NAMN="Lugnet" AKTIV_R="J" VALDAG_R="2018-09-09" AKTIV_L="J" VALDAG_L="2018-09-09" AKTIV_K="J" VALDAG_K="2018-09-09" VALKRETS_K="00" VK_NAMN_K="Ronneby" AKTIV_E="N" VALDAG_E="" LOKAL="Hälsocenter" ADRESS1="Konferenslokal Karön" ADRESS2="Hälsovägen 2" ADRESS3="" TILLGÄNGL="" LOKAL_KLAR="J" STATUS="E" LATITUD="56.206439" LONGITUD="15.270829">
        <ÖPPETPASS DATUM="2018-09-09" PASS="08:00-20:00" />
      </VALDISTRIKT>
      <VALDISTRIKT KOD="0108" NAMN="Persborg" AKTIV_R="J" VALDAG_R="2018-09-09" AKTIV_L="J" VALDAG_L="2018-09-09" AKTIV_K="J" VALDAG_K="2018-09-09" VALKRETS_K="00" VK_NAMN_K="Ronneby" AKTIV_E="N" VALDAG_E="" LOKAL="Skogsgårdsskolan" ADRESS1="Matsalen" ADRESS2="Persborgsvägen 3" ADRESS3="" TILLGÄNGL="" LOKAL_KLAR="J" STATUS="E" LATITUD="56.201542" LONGITUD="15.274329">
        <ÖPPETPASS DATUM="2018-09-09" PASS="08:00-20:00" />
      </VALDISTRIKT>
      <VALDISTRIKT KOD="0109" NAMN="Varan" AKTIV_R="J" VALDAG_R="2018-09-09" AKTIV_L="J" VALDAG_L="2018-09-09" AKTIV_K="J" VALDAG_K="2018-09-09" VALKRETS_K="00" VK_NAMN_K="Ronneby" AKTIV_E="N" VALDAG_E="" LOKAL="Saxemara skola" ADRESS1="Matsalen" ADRESS2="Skärgårdsvägen 4" ADRESS3="" TILLGÄNGL="" LOKAL_KLAR="J" STATUS="E" LATITUD="56.167088" LONGITUD="15.229829">
        <ÖPPETPASS DATUM="2018-09-09" PASS="08:00-20:00" />
      </VALDISTRIKT>
      <VALDISTRIKT KOD="0107" NAMN="Älgbacken" AKTIV_R="J" VALDAG_R="2018-09-09" AKTIV_L="J" VALDAG_L="2018-09-09" AKTIV_K="J" VALDAG_K="2018-09-09" VALKRETS_K="00" VK_NAMN_K="Ronneby" AKTIV_E="N" VALDAG_E="" LOKAL="Vidablick" ADRESS1="Stora samlingssalen" ADRESS2="Vidablicksvägen 6" ADRESS3="" TILLGÄNGL="" LOKAL_KLAR="J" STATUS="E" LATITUD="56.199453" LONGITUD="15.273278">
        <ÖPPETPASS DATUM="2018-09-09" PASS="08:00-20:00" />
      </VALDISTRIKT>
    </KOMMUN>
    <KOMMUN KOD="83" NAMN="Sölvesborg" VALNAMND="Valnämnden i Sölvesborgs kommun" HEMSIDA="www.solvesborg.se" TELNR="0456-816181/82" KLAR="J">
      <VALDISTRIKT KOD="0103" NAMN="Falkvik" AKTIV_R="J" VALDAG_R="2018-09-09" AKTIV_L="J" VALDAG_L="2018-09-09" AKTIV_K="J" VALDAG_K="2018-09-09" VALKRETS_K="00" VK_NAMN_K="Sölvesborg" AKTIV_E="N" VALDAG_E="" LOKAL="Falkviksskolan" ADRESS1="Matsalen" ADRESS2="Hanövägen" ADRESS3="" TILLGÄNGL="Ingång från Prästholmsvägen" LOKAL_KLAR="J" STATUS="E" LATITUD="56.038025" LONGITUD="14.569605">
        <ÖPPETPASS DATUM="2018-09-09" PASS="08:00-20:00" />
      </VALDISTRIKT>
      <VALDISTRIKT KOD="0101" NAMN="Furulund" AKTIV_R="J" VALDAG_R="2018-09-09" AKTIV_L="J" VALDAG_L="2018-09-09" AKTIV_K="J" VALDAG_K="2018-09-09" VALKRETS_K="00" VK_NAMN_K="Sölvesborg" AKTIV_E="N" VALDAG_E="" LOKAL="Furulundsskolan" ADRESS1="Aulan" ADRESS2="Yndevägen 2" ADRESS3="" TILLGÄNGL="" LOKAL_KLAR="J" STATUS="E" LATITUD="56.055691" LONGITUD="14.581994">
        <ÖPPETPASS DATUM="2018-09-09" PASS="08:00-20:00" />
      </VALDISTRIKT>
      <VALDISTRIKT KOD="0106" NAMN="Gammalstorp m fl" AKTIV_R="J" VALDAG_R="2018-09-09" AKTIV_L="J" VALDAG_L="2018-09-09" AKTIV_K="J" VALDAG_K="2018-09-09" VALKRETS_K="00" VK_NAMN_K="Sölvesborg" AKTIV_E="N" VALDAG_E="" LOKAL="Gammalstorps församlingshem" ADRESS1="" ADRESS2="Gammalstorps kyrkväg 64" ADRESS3="" TILLGÄNGL="" LOKAL_KLAR="J" STATUS="E" LATITUD="56.107694" LONGITUD="14.629833">
        <ÖPPETPASS DATUM="2018-09-09" PASS="08:00-20:00" />
      </VALDISTRIKT>
      <VALDISTRIKT KOD="0104" NAMN="Hjortakroken" AKTIV_R="J" VALDAG_R="2018-09-09" AKTIV_L="J" VALDAG_L="2018-09-09" AKTIV_K="J" VALDAG_K="2018-09-09" VALKRETS_K="00" VK_NAMN_K="Sölvesborg" AKTIV_E="N" VALDAG_E="" LOKAL="Hjortakroksskolan" ADRESS1="Matsalen" ADRESS2="Hjortakroksvägen 23" ADRESS3="" TILLGÄNGL="" LOKAL_KLAR="J" STATUS="E" LATITUD="56.060849" LONGITUD="14.580401">
        <ÖPPETPASS DATUM="2018-09-09" PASS="08:00-20:00" />
      </VALDISTRIKT>
      <VALDISTRIKT KOD="0109" NAMN="Hällevik m fl" AKTIV_R="J" VALDAG_R="2018-09-09" AKTIV_L="J" VALDAG_L="2018-09-09" AKTIV_K="J" VALDAG_K="2018-09-09" VALKRETS_K="00" VK_NAMN_K="Sölvesborg" AKTIV_E="N" VALDAG_E="" LOKAL="Havelidens skola i Hällevik" ADRESS1="Blåsippan utmed Haveliden" ADRESS2="Haveliden 27" ADRESS3="" TILLGÄNGL="" LOKAL_KLAR="J" STATUS="E" LATITUD="56.013869" LONGITUD="14.690715">
        <ÖPPETPASS DATUM="2018-09-09" PASS="08:00-20:00" />
      </VALDISTRIKT>
      <VALDISTRIKT KOD="0108" NAMN="Hörvik m fl" AKTIV_R="J" VALDAG_R="2018-09-09" AKTIV_L="J" VALDAG_L="2018-09-09" AKTIV_K="J" VALDAG_K="2018-09-09" VALKRETS_K="00" VK_NAMN_K="Sölvesborg" AKTIV_E="N" VALDAG_E="" LOKAL="Hörviks skola" ADRESS1="Matsalen" ADRESS2="Bollvägen 6" ADRESS3="" TILLGÄNGL="" LOKAL_KLAR="J" STATUS="E" LATITUD="56.039184" LONGITUD="14.754597">
        <ÖPPETPASS DATUM="2018-09-09" PASS="08:00-20:00" />
      </VALDISTRIKT>
      <VALDISTRIKT KOD="0107" NAMN="Mjällby m fl" AKTIV_R="J" VALDAG_R="2018-09-09" AKTIV_L="J" VALDAG_L="2018-09-09" AKTIV_K="J" VALDAG_K="2018-09-09" VALKRETS_K="00" VK_NAMN_K="Sölvesborg" AKTIV_E="N" VALDAG_E="" LOKAL="Mjällby skola" ADRESS1="Matsalen" ADRESS2="Skolvägen 4" ADRESS3="" TILLGÄNGL="" LOKAL_KLAR="J" STATUS="E" LATITUD="56.048153" LONGITUD="14.677898">
        <ÖPPETPASS DATUM="2018-09-09" PASS="08:00-20:00" />
      </VALDISTRIKT>
      <VALDISTRIKT KOD="0102" NAMN="Möllebacken" AKTIV_R="J" VALDAG_R="2018-09-09" AKTIV_L="J" VALDAG_L="2018-09-09" AKTIV_K="J" VALDAG_K="2018-09-09" VALKRETS_K="00" VK_NAMN_K="Sölvesborg" AKTIV_E="N" VALDAG_E="" LOKAL="Möllebacksskolan" ADRESS1="Matsalen" ADRESS2="Västra Storgatan 35" ADRESS3="" TILLGÄNGL="" LOKAL_KLAR="J" STATUS="E" LATITUD="56.05206" LONGITUD="14.577293">
        <ÖPPETPASS DATUM="2018-09-09" PASS="08:00-20:00" />
      </VALDISTRIKT>
      <VALDISTRIKT KOD="0105" NAMN="Norje m fl" AKTIV_R="J" VALDAG_R="2018-09-09" AKTIV_L="J" VALDAG_L="2018-09-09" AKTIV_K="J" VALDAG_K="2018-09-09" VALKRETS_K="00" VK_NAMN_K="Sölvesborg" AKTIV_E="N" VALDAG_E="" LOKAL="Norje skola" ADRESS1="Matsalen" ADRESS2="Byvägen 7" ADRESS3="" TILLGÄNGL="" LOKAL_KLAR="J" STATUS="E" LATITUD="56.120872" LONGITUD="14.672233">
        <ÖPPETPASS DATUM="2018-09-09" PASS="08:00-20:00" />
      </VALDISTRIKT>
      <VALDISTRIKT KOD="0110" NAMN="Siretorp m fl" AKTIV_R="J" VALDAG_R="2018-09-09" AKTIV_L="J" VALDAG_L="2018-09-09" AKTIV_K="J" VALDAG_K="2018-09-09" VALKRETS_K="00" VK_NAMN_K="Sölvesborg" AKTIV_E="N" VALDAG_E="" LOKAL="Siretorps bygdegård" ADRESS1="" ADRESS2="Sandviksvägen 18" ADRESS3="" TILLGÄNGL="" LOKAL_KLAR="J" STATUS="E" LATITUD="56.041434" LONGITUD="14.621324">
        <ÖPPETPASS DATUM="2018-09-09" PASS="08:00-20:00" />
      </VALDISTRIKT>
    </KOMMUN>
  </LÄN>
  <LÄN KOD="20" NAMN="Dalarnas län">
    <KOMMUN KOD="84" NAMN="Avesta" VALNAMND="Valnämnden i Avesta kommun" HEMSIDA="www.avesta.se" TELNR="070-593 37 38" KLAR="J">
      <VALDISTRIKT KOD="0102" NAMN="Avesta C" AKTIV_R="J" VALDAG_R="2018-09-09" AKTIV_L="J" VALDAG_L="2018-09-09" AKTIV_K="J" VALDAG_K="2018-09-09" VALKRETS_K="00" VK_NAMN_K="Avesta" AKTIV_E="N" VALDAG_E="" LOKAL="Markusskolans matsal" ADRESS1="Ingång från skolgården" ADRESS2="Markusgatan 19" ADRESS3="" TILLGÄNGL="Hiss finns." LOKAL_KLAR="J" STATUS="E" LATITUD="60.14387" LONGITUD="16.169254">
        <ÖPPETPASS DATUM="2018-09-09" PASS="08:00-20:00" />
      </VALDISTRIKT>
      <VALDISTRIKT KOD="0101" NAMN="Avesta N-Högbo" AKTIV_R="J" VALDAG_R="2018-09-09" AKTIV_L="J" VALDAG_L="2018-09-09" AKTIV_K="J" VALDAG_K="2018-09-09" VALKRETS_K="00" VK_NAMN_K="Avesta" AKTIV_E="N" VALDAG_E="" LOKAL="Avesta församlingsgård" ADRESS1="Stora salen" ADRESS2="Bruksgatan 3" ADRESS3="" TILLGÄNGL="Ramp finns." LOKAL_KLAR="J" STATUS="E" LATITUD="60.148617" LONGITUD="16.166318">
        <ÖPPETPASS DATUM="2018-09-09" PASS="08:00-20:00" />
      </VALDISTRIKT>
      <VALDISTRIKT KOD="0104" NAMN="Avesta S" AKTIV_R="J" VALDAG_R="2018-09-09" AKTIV_L="J" VALDAG_L="2018-09-09" AKTIV_K="J" VALDAG_K="2018-09-09" VALKRETS_K="00" VK_NAMN_K="Avesta" AKTIV_E="N" VALDAG_E="" LOKAL="Avesta Brandstation" ADRESS1="Räddningscentralen" ADRESS2="Axel Johnsons väg 70" ADRESS3="" TILLGÄNGL="" LOKAL_KLAR="J" STATUS="E" LATITUD="60.140636" LONGITUD="16.17046">
        <ÖPPETPASS DATUM="2018-09-09" PASS="08:00-20:00" />
      </VALDISTRIKT>
      <VALDISTRIKT KOD="0103" NAMN="Avesta V-Bengtsbo-Nyhyttan" AKTIV_R="J" VALDAG_R="2018-09-09" AKTIV_L="J" VALDAG_L="2018-09-09" AKTIV_K="J" VALDAG_K="2018-09-09" VALKRETS_K="00" VK_NAMN_K="Avesta" AKTIV_E="N" VALDAG_E="" LOKAL="Samlingslokalen Kolan" ADRESS1="Parkering via Kolgillareg" ADRESS2="Prästgatan 35" ADRESS3="" TILLGÄNGL="Ramp finns." LOKAL_KLAR="J" STATUS="E" LATITUD="60.139557" LONGITUD="16.161252">
        <ÖPPETPASS DATUM="2018-09-09" PASS="08:00-20:00" />
      </VALDISTRIKT>
      <VALDISTRIKT KOD="0302" NAMN="By" AKTIV_R="J" VALDAG_R="2018-09-09" AKTIV_L="J" VALDAG_L="2018-09-09" AKTIV_K="J" VALDAG_K="2018-09-09" VALKRETS_K="00" VK_NAMN_K="Avesta" AKTIV_E="N" VALDAG_E="" LOKAL="Solbacka Bystuga" ADRESS1="" ADRESS2="Bredgrind 14" ADRESS3="" TILLGÄNGL="Ramp finns." LOKAL_KLAR="J" STATUS="E" LATITUD="60.19565" LONGITUD="16.46271">
        <ÖPPETPASS DATUM="2018-09-09" PASS="08:00-20:00" />
      </VALDISTRIKT>
      <VALDISTRIKT KOD="0401" NAMN="Folkärna" AKTIV_R="J" VALDAG_R="2018-09-09" AKTIV_L="J" VALDAG_L="2018-09-09" AKTIV_K="J" VALDAG_K="2018-09-09" VALKRETS_K="00" VK_NAMN_K="Avesta" AKTIV_E="N" VALDAG_E="" LOKAL="Folkärna församlingsgård" ADRESS1="" ADRESS2="Folkärna" ADRESS3="" TILLGÄNGL="Ramp finns." LOKAL_KLAR="J" STATUS="E" LATITUD="60.15259" LONGITUD="16.312736">
        <ÖPPETPASS DATUM="2018-09-09" PASS="08:00-20:00" />
      </VALDISTRIKT>
      <VALDISTRIKT KOD="0402" NAMN="Fors" AKTIV_R="J" VALDAG_R="2018-09-09" AKTIV_L="J" VALDAG_L="2018-09-09" AKTIV_K="J" VALDAG_K="2018-09-09" VALKRETS_K="00" VK_NAMN_K="Avesta" AKTIV_E="N" VALDAG_E="" LOKAL="Fors skolas matsal" ADRESS1="" ADRESS2="Vipvägen 4" ADRESS3="" TILLGÄNGL="" LOKAL_KLAR="J" STATUS="E" LATITUD="60.205837" LONGITUD="16.304594">
        <ÖPPETPASS DATUM="2018-09-09" PASS="08:00-20:00" />
      </VALDISTRIKT>
      <VALDISTRIKT KOD="0301" NAMN="Horndal" AKTIV_R="J" VALDAG_R="2018-09-09" AKTIV_L="J" VALDAG_L="2018-09-09" AKTIV_K="J" VALDAG_K="2018-09-09" VALKRETS_K="00" VK_NAMN_K="Avesta" AKTIV_E="N" VALDAG_E="" LOKAL="Kulturforums foajé" ADRESS1="" ADRESS2="Stora vägen 8" ADRESS3="" TILLGÄNGL="" LOKAL_KLAR="J" STATUS="E" LATITUD="60.290619" LONGITUD="16.402845">
        <ÖPPETPASS DATUM="2018-09-09" PASS="08:00-20:00" />
      </VALDISTRIKT>
      <VALDISTRIKT KOD="0404" NAMN="Karlbo" AKTIV_R="J" VALDAG_R="2018-09-09" AKTIV_L="J" VALDAG_L="2018-09-09" AKTIV_K="J" VALDAG_K="2018-09-09" VALKRETS_K="00" VK_NAMN_K="Avesta" AKTIV_E="N" VALDAG_E="" LOKAL="Karlbo skolas matsal" ADRESS1="" ADRESS2="Folkaregatan 55" ADRESS3="" TILLGÄNGL="Hiss finns." LOKAL_KLAR="J" STATUS="E" LATITUD="60.118623" LONGITUD="16.253814">
        <ÖPPETPASS DATUM="2018-09-09" PASS="08:00-20:00" />
      </VALDISTRIKT>
      <VALDISTRIKT KOD="0403" NAMN="Krylbo" AKTIV_R="J" VALDAG_R="2018-09-09" AKTIV_L="J" VALDAG_L="2018-09-09" AKTIV_K="J" VALDAG_K="2018-09-09" VALKRETS_K="00" VK_NAMN_K="Avesta" AKTIV_E="N" VALDAG_E="" LOKAL="Krylbo Församlingsgård" ADRESS1="" ADRESS2="Smidesgatan 5" ADRESS3="" TILLGÄNGL="" LOKAL_KLAR="J" STATUS="E" LATITUD="60.130383" LONGITUD="16.211387">
        <ÖPPETPASS DATUM="2018-09-09" PASS="08:00-20:00" />
      </VALDISTRIKT>
      <VALDISTRIKT KOD="0602" NAMN="Skogsbo C-Grytnäs gärde" AKTIV_R="J" VALDAG_R="2018-09-09" AKTIV_L="J" VALDAG_L="2018-09-09" AKTIV_K="J" VALDAG_K="2018-09-09" VALKRETS_K="00" VK_NAMN_K="Avesta" AKTIV_E="N" VALDAG_E="" LOKAL="Skogsbo skolas matsal" ADRESS1="" ADRESS2="Skogsbovägen 2" ADRESS3="" TILLGÄNGL="" LOKAL_KLAR="J" STATUS="E" LATITUD="60.157287" LONGITUD="16.179485">
        <ÖPPETPASS DATUM="2018-09-09" PASS="08:00-20:00" />
      </VALDISTRIKT>
      <VALDISTRIKT KOD="0601" NAMN="Skogsbo N-Rutbo-Grytnäs" AKTIV_R="J" VALDAG_R="2018-09-09" AKTIV_L="J" VALDAG_L="2018-09-09" AKTIV_K="J" VALDAG_K="2018-09-09" VALKRETS_K="00" VK_NAMN_K="Avesta" AKTIV_E="N" VALDAG_E="" LOKAL="Klockarskolans matsal" ADRESS1="" ADRESS2="Krontallsvägen 38" ADRESS3="" TILLGÄNGL="" LOKAL_KLAR="J" STATUS="E" LATITUD="60.163538" LONGITUD="16.181105">
        <ÖPPETPASS DATUM="2018-09-09" PASS="08:00-20:00" />
      </VALDISTRIKT>
    </KOMMUN>
    <KOMMUN KOD="81" NAMN="Borlänge" VALNAMND="Valnämnden i Borlänge kommun" HEMSIDA="www.borlange.se" TELNR="0243-74116" KLAR="J">
      <VALDISTRIKT KOD="0101" NAMN="Bergslagsbyn" AKTIV_R="J" VALDAG_R="2018-09-09" AKTIV_L="J" VALDAG_L="2018-09-09" AKTIV_K="J" VALDAG_K="2018-09-09" VALKRETS_K="00" VK_NAMN_K="Borlänge" AKTIV_E="N" VALDAG_E="" LOKAL="Forssaklackskolan" ADRESS1="Gymnastiksalen" ADRESS2="Gråstensgatan" ADRESS3="" TILLGÄNGL="" LOKAL_KLAR="J" STATUS="E" LATITUD="60.504255" LONGITUD="15.428152">
        <ÖPPETPASS DATUM="2018-09-09" PASS="08:00-20:00" />
      </VALDISTRIKT>
      <VALDISTRIKT KOD="0103" NAMN="Bullermyren" AKTIV_R="J" VALDAG_R="2018-09-09" AKTIV_L="J" VALDAG_L="2018-09-09" AKTIV_K="J" VALDAG_K="2018-09-09" VALKRETS_K="00" VK_NAMN_K="Borlänge" AKTIV_E="N" VALDAG_E="" LOKAL="Betesgatan 12" ADRESS1="" ADRESS2="Betesgatan 12" ADRESS3="" TILLGÄNGL="" LOKAL_KLAR="J" STATUS="E" LATITUD="60.499667" LONGITUD="15.415096">
        <ÖPPETPASS DATUM="2018-09-09" PASS="08:00-20:00" />
      </VALDISTRIKT>
      <VALDISTRIKT KOD="0201" NAMN="Centrum - Mjälga" AKTIV_R="J" VALDAG_R="2018-09-09" AKTIV_L="J" VALDAG_L="2018-09-09" AKTIV_K="J" VALDAG_K="2018-09-09" VALKRETS_K="00" VK_NAMN_K="Borlänge" AKTIV_E="N" VALDAG_E="" LOKAL="Huvudbiblioteket" ADRESS1="" ADRESS2="Sveatorget" ADRESS3="" TILLGÄNGL="" LOKAL_KLAR="J" STATUS="E" LATITUD="60.487194" LONGITUD="15.434219">
        <ÖPPETPASS DATUM="2018-09-09" PASS="08:00-20:00" />
      </VALDISTRIKT>
      <VALDISTRIKT KOD="0203" NAMN="Domnarvet V" AKTIV_R="J" VALDAG_R="2018-09-09" AKTIV_L="J" VALDAG_L="2018-09-09" AKTIV_K="J" VALDAG_K="2018-09-09" VALKRETS_K="00" VK_NAMN_K="Borlänge" AKTIV_E="N" VALDAG_E="" LOKAL="Honefshallen" ADRESS1="" ADRESS2="Honefsgatan 17" ADRESS3="" TILLGÄNGL="" LOKAL_KLAR="J" STATUS="E" LATITUD="60.501619" LONGITUD="15.454599">
        <ÖPPETPASS DATUM="2018-09-09" PASS="08:00-20:00" />
      </VALDISTRIKT>
      <VALDISTRIKT KOD="0205" NAMN="Domnarvet Ö" AKTIV_R="J" VALDAG_R="2018-09-09" AKTIV_L="J" VALDAG_L="2018-09-09" AKTIV_K="J" VALDAG_K="2018-09-09" VALKRETS_K="00" VK_NAMN_K="Borlänge" AKTIV_E="N" VALDAG_E="" LOKAL="Hagbacksgårdens servicehus" ADRESS1="" ADRESS2="Hagbacksgatan 30" ADRESS3="" TILLGÄNGL="" LOKAL_KLAR="J" STATUS="E" LATITUD="60.501546" LONGITUD="15.464681">
        <ÖPPETPASS DATUM="2018-09-09" PASS="08:00-20:00" />
      </VALDISTRIKT>
      <VALDISTRIKT KOD="0207" NAMN="Färjegårdarna - Årby - Hytting" AKTIV_R="J" VALDAG_R="2018-09-09" AKTIV_L="J" VALDAG_L="2018-09-09" AKTIV_K="J" VALDAG_K="2018-09-09" VALKRETS_K="00" VK_NAMN_K="Borlänge" AKTIV_E="N" VALDAG_E="" LOKAL="Förskolan Färjegården" ADRESS1="" ADRESS2="Mjälgavägen 90" ADRESS3="" TILLGÄNGL="" LOKAL_KLAR="J" STATUS="E" LATITUD="60.47089" LONGITUD="15.480165">
        <ÖPPETPASS DATUM="2018-09-09" PASS="08:00-20:00" />
      </VALDISTRIKT>
      <VALDISTRIKT KOD="0209" NAMN="Gylletäppan" AKTIV_R="J" VALDAG_R="2018-09-09" AKTIV_L="J" VALDAG_L="2018-09-09" AKTIV_K="J" VALDAG_K="2018-09-09" VALKRETS_K="00" VK_NAMN_K="Borlänge" AKTIV_E="N" VALDAG_E="" LOKAL="Borlänge badmintonhall" ADRESS1="" ADRESS2="Gyllehemsvägen 24" ADRESS3="" TILLGÄNGL="" LOKAL_KLAR="J" STATUS="E" LATITUD="60.474387" LONGITUD="15.461503">
        <ÖPPETPASS DATUM="2018-09-09" PASS="08:00-20:00" />
      </VALDISTRIKT>
      <VALDISTRIKT KOD="0211" NAMN="Gylle - Åselby" AKTIV_R="J" VALDAG_R="2018-09-09" AKTIV_L="J" VALDAG_L="2018-09-09" AKTIV_K="J" VALDAG_K="2018-09-09" VALKRETS_K="00" VK_NAMN_K="Borlänge" AKTIV_E="N" VALDAG_E="" LOKAL="Gylle skola" ADRESS1="" ADRESS2="Västanvägen" ADRESS3="" TILLGÄNGL="" LOKAL_KLAR="J" STATUS="E" LATITUD="60.466518" LONGITUD="15.448271">
        <ÖPPETPASS DATUM="2018-09-09" PASS="08:00-20:00" />
      </VALDISTRIKT>
      <VALDISTRIKT KOD="0105" NAMN="Hagalund N" AKTIV_R="J" VALDAG_R="2018-09-09" AKTIV_L="J" VALDAG_L="2018-09-09" AKTIV_K="J" VALDAG_K="2018-09-09" VALKRETS_K="00" VK_NAMN_K="Borlänge" AKTIV_E="N" VALDAG_E="" LOKAL="Maserskolan" ADRESS1="" ADRESS2="Hagavägen 70" ADRESS3="" TILLGÄNGL="" LOKAL_KLAR="J" STATUS="E" LATITUD="60.493152" LONGITUD="15.417796">
        <ÖPPETPASS DATUM="2018-09-09" PASS="08:00-20:00" />
      </VALDISTRIKT>
      <VALDISTRIKT KOD="0107" NAMN="Hagalund V" AKTIV_R="J" VALDAG_R="2018-09-09" AKTIV_L="J" VALDAG_L="2018-09-09" AKTIV_K="J" VALDAG_K="2018-09-09" VALKRETS_K="00" VK_NAMN_K="Borlänge" AKTIV_E="N" VALDAG_E="" LOKAL="Kulturhuset Svanen" ADRESS1="" ADRESS2="Hesseliusgatan 1" ADRESS3="" TILLGÄNGL="" LOKAL_KLAR="J" STATUS="E" LATITUD="60.487375" LONGITUD="15.418829">
        <ÖPPETPASS DATUM="2018-09-09" PASS="08:00-20:00" />
      </VALDISTRIKT>
      <VALDISTRIKT KOD="0109" NAMN="Hagalund Ö - Ringen" AKTIV_R="J" VALDAG_R="2018-09-09" AKTIV_L="J" VALDAG_L="2018-09-09" AKTIV_K="J" VALDAG_K="2018-09-09" VALKRETS_K="00" VK_NAMN_K="Borlänge" AKTIV_E="N" VALDAG_E="" LOKAL="Cozmoz" ADRESS1="" ADRESS2="Engelbrektsgatan 36" ADRESS3="" TILLGÄNGL="" LOKAL_KLAR="J" STATUS="E" LATITUD="60.489371" LONGITUD="15.428903">
        <ÖPPETPASS DATUM="2018-09-09" PASS="08:00-20:00" />
      </VALDISTRIKT>
      <VALDISTRIKT KOD="0213" NAMN="Hushagen - Forssa" AKTIV_R="J" VALDAG_R="2018-09-09" AKTIV_L="J" VALDAG_L="2018-09-09" AKTIV_K="J" VALDAG_K="2018-09-09" VALKRETS_K="00" VK_NAMN_K="Borlänge" AKTIV_E="N" VALDAG_E="" LOKAL="Erikslundsgymnasiet" ADRESS1="Entréhallen" ADRESS2="Röda vägen 56" ADRESS3="" TILLGÄNGL="" LOKAL_KLAR="J" STATUS="E" LATITUD="60.493343" LONGITUD="15.431347">
        <ÖPPETPASS DATUM="2018-09-09" PASS="08:00-20:00" />
      </VALDISTRIKT>
      <VALDISTRIKT KOD="0111" NAMN="Jakobsgårdarna" AKTIV_R="J" VALDAG_R="2018-09-09" AKTIV_L="J" VALDAG_L="2018-09-09" AKTIV_K="J" VALDAG_K="2018-09-09" VALKRETS_K="00" VK_NAMN_K="Borlänge" AKTIV_E="N" VALDAG_E="" LOKAL="Jakobsgårdsskolan" ADRESS1="" ADRESS2="Jaxtorget 5" ADRESS3="" TILLGÄNGL="" LOKAL_KLAR="J" STATUS="E" LATITUD="60.483192" LONGITUD="15.403022">
        <ÖPPETPASS DATUM="2018-09-09" PASS="08:00-20:00" />
      </VALDISTRIKT>
      <VALDISTRIKT KOD="0113" NAMN="Kvarnsveden V" AKTIV_R="J" VALDAG_R="2018-09-09" AKTIV_L="J" VALDAG_L="2018-09-09" AKTIV_K="J" VALDAG_K="2018-09-09" VALKRETS_K="00" VK_NAMN_K="Borlänge" AKTIV_E="N" VALDAG_E="" LOKAL="Kvarnsvedens skola" ADRESS1="" ADRESS2="G:a Fabriksgatan 13" ADRESS3="" TILLGÄNGL="" LOKAL_KLAR="J" STATUS="E" LATITUD="60.520817" LONGITUD="15.41208">
        <ÖPPETPASS DATUM="2018-09-09" PASS="08:00-20:00" />
      </VALDISTRIKT>
      <VALDISTRIKT KOD="0115" NAMN="Kvarnsveden Ö" AKTIV_R="J" VALDAG_R="2018-09-09" AKTIV_L="J" VALDAG_L="2018-09-09" AKTIV_K="J" VALDAG_K="2018-09-09" VALKRETS_K="00" VK_NAMN_K="Borlänge" AKTIV_E="N" VALDAG_E="" LOKAL="Forum Kvarnsveden" ADRESS1="" ADRESS2="Kvarnforsplan 2" ADRESS3="" TILLGÄNGL="" LOKAL_KLAR="J" STATUS="E" LATITUD="60.516196" LONGITUD="15.414795">
        <ÖPPETPASS DATUM="2018-09-09" PASS="08:00-20:00" />
      </VALDISTRIKT>
      <VALDISTRIKT KOD="0215" NAMN="Kyrkbygden - Söder Tuna" AKTIV_R="J" VALDAG_R="2018-09-09" AKTIV_L="J" VALDAG_L="2018-09-09" AKTIV_K="J" VALDAG_K="2018-09-09" VALKRETS_K="00" VK_NAMN_K="Borlänge" AKTIV_E="N" VALDAG_E="" LOKAL="Tunets skola - matsalen" ADRESS1="" ADRESS2="Paradgatan 10" ADRESS3="" TILLGÄNGL="" LOKAL_KLAR="J" STATUS="E" LATITUD="60.439953" LONGITUD="15.483763">
        <ÖPPETPASS DATUM="2018-09-09" PASS="08:00-20:00" />
      </VALDISTRIKT>
      <VALDISTRIKT KOD="0117" NAMN="Mats Knuts - Nygårdarna" AKTIV_R="J" VALDAG_R="2018-09-09" AKTIV_L="J" VALDAG_L="2018-09-09" AKTIV_K="J" VALDAG_K="2018-09-09" VALKRETS_K="00" VK_NAMN_K="Borlänge" AKTIV_E="N" VALDAG_E="" LOKAL="Förskolan Bolbyn" ADRESS1="" ADRESS2="Rörtegsgatan 10" ADRESS3="" TILLGÄNGL="" LOKAL_KLAR="J" STATUS="E" LATITUD="60.47403" LONGITUD="15.398097">
        <ÖPPETPASS DATUM="2018-09-09" PASS="08:00-20:00" />
      </VALDISTRIKT>
      <VALDISTRIKT KOD="0119" NAMN="Norr Amsberg" AKTIV_R="J" VALDAG_R="2018-09-09" AKTIV_L="J" VALDAG_L="2018-09-09" AKTIV_K="J" VALDAG_K="2018-09-09" VALKRETS_K="00" VK_NAMN_K="Borlänge" AKTIV_E="N" VALDAG_E="" LOKAL="Församlingshemmet N Amsberg" ADRESS1="" ADRESS2="Norr Amsberg" ADRESS3="" TILLGÄNGL="" LOKAL_KLAR="J" STATUS="E" LATITUD="60.528461" LONGITUD="15.355468">
        <ÖPPETPASS DATUM="2018-09-09" PASS="08:00-20:00" />
      </VALDISTRIKT>
      <VALDISTRIKT KOD="0217" NAMN="Ornäs" AKTIV_R="J" VALDAG_R="2018-09-09" AKTIV_L="J" VALDAG_L="2018-09-09" AKTIV_K="J" VALDAG_K="2018-09-09" VALKRETS_K="00" VK_NAMN_K="Borlänge" AKTIV_E="N" VALDAG_E="" LOKAL="Ornäs skola" ADRESS1="Matsal" ADRESS2="Dalsjövägen 25" ADRESS3="" TILLGÄNGL="" LOKAL_KLAR="J" STATUS="E" LATITUD="60.502521" LONGITUD="15.53344">
        <ÖPPETPASS DATUM="2018-09-09" PASS="08:00-20:00" />
      </VALDISTRIKT>
      <VALDISTRIKT KOD="0121" NAMN="Skräddarbacken" AKTIV_R="J" VALDAG_R="2018-09-09" AKTIV_L="J" VALDAG_L="2018-09-09" AKTIV_K="J" VALDAG_K="2018-09-09" VALKRETS_K="00" VK_NAMN_K="Borlänge" AKTIV_E="N" VALDAG_E="" LOKAL="Skräddarbacksskolan" ADRESS1="" ADRESS2="Frostmors väg" ADRESS3="" TILLGÄNGL="" LOKAL_KLAR="J" STATUS="E" LATITUD="60.469021" LONGITUD="15.37789">
        <ÖPPETPASS DATUM="2018-09-09" PASS="08:00-20:00" />
      </VALDISTRIKT>
      <VALDISTRIKT KOD="0123" NAMN="Tjärna Ängar - Paradiset" AKTIV_R="J" VALDAG_R="2018-09-09" AKTIV_L="J" VALDAG_L="2018-09-09" AKTIV_K="J" VALDAG_K="2018-09-09" VALKRETS_K="00" VK_NAMN_K="Borlänge" AKTIV_E="N" VALDAG_E="" LOKAL="Förskolan Trollskogen" ADRESS1="" ADRESS2="Kornstigen 4" ADRESS3="" TILLGÄNGL="" LOKAL_KLAR="J" STATUS="E" LATITUD="60.491307" LONGITUD="15.398189">
        <ÖPPETPASS DATUM="2018-09-09" PASS="08:00-20:00" />
      </VALDISTRIKT>
      <VALDISTRIKT KOD="0125" NAMN="Tjärna Ängar - Övre Tjärna" AKTIV_R="J" VALDAG_R="2018-09-09" AKTIV_L="J" VALDAG_L="2018-09-09" AKTIV_K="J" VALDAG_K="2018-09-09" VALKRETS_K="00" VK_NAMN_K="Borlänge" AKTIV_E="N" VALDAG_E="" LOKAL="Tjärnaängsskolan" ADRESS1="Matsal" ADRESS2="Jan Ers g 1 Tjärna Centrum" ADRESS3="" TILLGÄNGL="" LOKAL_KLAR="J" STATUS="E" LATITUD="60.494365" LONGITUD="15.399131">
        <ÖPPETPASS DATUM="2018-09-09" PASS="08:00-20:00" />
      </VALDISTRIKT>
      <VALDISTRIKT KOD="0219" NAMN="Torsång" AKTIV_R="J" VALDAG_R="2018-09-09" AKTIV_L="J" VALDAG_L="2018-09-09" AKTIV_K="J" VALDAG_K="2018-09-09" VALKRETS_K="00" VK_NAMN_K="Borlänge" AKTIV_E="N" VALDAG_E="" LOKAL="Torsångs skola" ADRESS1="" ADRESS2="Torsvägen 1" ADRESS3="" TILLGÄNGL="" LOKAL_KLAR="J" STATUS="E" LATITUD="60.47321" LONGITUD="15.563079">
        <ÖPPETPASS DATUM="2018-09-09" PASS="08:00-20:00" />
      </VALDISTRIKT>
      <VALDISTRIKT KOD="0221" NAMN="Väster Tuna - Idkerberget" AKTIV_R="J" VALDAG_R="2018-09-09" AKTIV_L="J" VALDAG_L="2018-09-09" AKTIV_K="J" VALDAG_K="2018-09-09" VALKRETS_K="00" VK_NAMN_K="Borlänge" AKTIV_E="N" VALDAG_E="" LOKAL="Väster Tuna församlingshem" ADRESS1="" ADRESS2="Väster Tuna" ADRESS3="" TILLGÄNGL="" LOKAL_KLAR="J" STATUS="E" LATITUD="60.420031" LONGITUD="15.35481">
        <ÖPPETPASS DATUM="2018-09-09" PASS="08:00-20:00" />
      </VALDISTRIKT>
      <VALDISTRIKT KOD="0223" NAMN="Östermalm" AKTIV_R="J" VALDAG_R="2018-09-09" AKTIV_L="J" VALDAG_L="2018-09-09" AKTIV_K="J" VALDAG_K="2018-09-09" VALKRETS_K="00" VK_NAMN_K="Borlänge" AKTIV_E="N" VALDAG_E="" LOKAL="Mjälgaskolan" ADRESS1="" ADRESS2="Stationsgatan 35" ADRESS3="" TILLGÄNGL="" LOKAL_KLAR="J" STATUS="E" LATITUD="60.481753" LONGITUD="15.439665">
        <ÖPPETPASS DATUM="2018-09-09" PASS="08:00-20:00" />
      </VALDISTRIKT>
    </KOMMUN>
    <KOMMUN KOD="80" NAMN="Falun" VALNAMND="Valnämnden i Falu kommun" HEMSIDA="www.falun.se" TELNR="023-87 050" KLAR="J">
      <VALDISTRIKT KOD="0401" NAMN="Aspeboda" AKTIV_R="J" VALDAG_R="2018-09-09" AKTIV_L="J" VALDAG_L="2018-09-09" AKTIV_K="J" VALDAG_K="2018-09-09" VALKRETS_K="00" VK_NAMN_K="Falun" AKTIV_E="N" VALDAG_E="" LOKAL="Aspebodaskolan" ADRESS1="Matsal" ADRESS2="Lilla Aspeboda 148" ADRESS3="" TILLGÄNGL="" LOKAL_KLAR="J" STATUS="E" LATITUD="60.558883" LONGITUD="15.495978">
        <ÖPPETPASS DATUM="2018-09-09" PASS="08:00-20:00" />
      </VALDISTRIKT>
      <VALDISTRIKT KOD="1102" NAMN="Bjursås V" AKTIV_R="J" VALDAG_R="2018-09-09" AKTIV_L="J" VALDAG_L="2018-09-09" AKTIV_K="J" VALDAG_K="2018-09-09" VALKRETS_K="00" VK_NAMN_K="Falun" AKTIV_E="N" VALDAG_E="" LOKAL="Bjursåsskolan" ADRESS1="Klassrum" ADRESS2="Skolgränd" ADRESS3="" TILLGÄNGL="" LOKAL_KLAR="J" STATUS="E" LATITUD="60.738834" LONGITUD="15.44462">
        <ÖPPETPASS DATUM="2018-09-09" PASS="08:00-20:00" />
      </VALDISTRIKT>
      <VALDISTRIKT KOD="1101" NAMN="Bjursås Ö och Sågmyra" AKTIV_R="J" VALDAG_R="2018-09-09" AKTIV_L="J" VALDAG_L="2018-09-09" AKTIV_K="J" VALDAG_K="2018-09-09" VALKRETS_K="00" VK_NAMN_K="Falun" AKTIV_E="N" VALDAG_E="" LOKAL="Bjursåsskolan" ADRESS1="Matsal" ADRESS2="Skolgränd" ADRESS3="" TILLGÄNGL="" LOKAL_KLAR="J" STATUS="E" LATITUD="60.738834" LONGITUD="15.44462">
        <ÖPPETPASS DATUM="2018-09-09" PASS="08:00-20:00" />
      </VALDISTRIKT>
      <VALDISTRIKT KOD="0802" NAMN="Boda och Toftbyn" AKTIV_R="J" VALDAG_R="2018-09-09" AKTIV_L="J" VALDAG_L="2018-09-09" AKTIV_K="J" VALDAG_K="2018-09-09" VALKRETS_K="00" VK_NAMN_K="Falun" AKTIV_E="N" VALDAG_E="" LOKAL="Liljansskolan" ADRESS1="Matsal" ADRESS2="Bergsmansvägen 1" ADRESS3="" TILLGÄNGL="" LOKAL_KLAR="J" STATUS="E" LATITUD="60.708155" LONGITUD="15.869719">
        <ÖPPETPASS DATUM="2018-09-09" PASS="08:00-20:00" />
      </VALDISTRIKT>
      <VALDISTRIKT KOD="0306" NAMN="Bojsenburg" AKTIV_R="J" VALDAG_R="2018-09-09" AKTIV_L="J" VALDAG_L="2018-09-09" AKTIV_K="J" VALDAG_K="2018-09-09" VALKRETS_K="00" VK_NAMN_K="Falun" AKTIV_E="N" VALDAG_E="" LOKAL="Britsarvsskolan" ADRESS1="Aulan" ADRESS2="Hellbergs väg 11" ADRESS3="" TILLGÄNGL="" LOKAL_KLAR="J" STATUS="E" LATITUD="60.624713" LONGITUD="15.622025">
        <ÖPPETPASS DATUM="2018-09-09" PASS="08:00-20:00" />
      </VALDISTRIKT>
      <VALDISTRIKT KOD="0803" NAMN="Borgärdet och Lumsheden" AKTIV_R="J" VALDAG_R="2018-09-09" AKTIV_L="J" VALDAG_L="2018-09-09" AKTIV_K="J" VALDAG_K="2018-09-09" VALKRETS_K="00" VK_NAMN_K="Falun" AKTIV_E="N" VALDAG_E="" LOKAL="Svärdsjöskolan" ADRESS1="Entréhall" ADRESS2="Idrottsvägen 1" ADRESS3="" TILLGÄNGL="" LOKAL_KLAR="J" STATUS="E" LATITUD="60.744804" LONGITUD="15.905544">
        <ÖPPETPASS DATUM="2018-09-09" PASS="08:00-20:00" />
      </VALDISTRIKT>
      <VALDISTRIKT KOD="0310" NAMN="Britsarvet" AKTIV_R="J" VALDAG_R="2018-09-09" AKTIV_L="J" VALDAG_L="2018-09-09" AKTIV_K="J" VALDAG_K="2018-09-09" VALKRETS_K="00" VK_NAMN_K="Falun" AKTIV_E="N" VALDAG_E="" LOKAL="Britsarvsgården" ADRESS1="Samlingssal" ADRESS2="Tegelvägen 16" ADRESS3="" TILLGÄNGL="" LOKAL_KLAR="J" STATUS="E" LATITUD="60.621005" LONGITUD="15.627434">
        <ÖPPETPASS DATUM="2018-09-09" PASS="08:00-20:00" />
      </VALDISTRIKT>
      <VALDISTRIKT KOD="0702" NAMN="Danholn och Karlsbyheden" AKTIV_R="J" VALDAG_R="2018-09-09" AKTIV_L="J" VALDAG_L="2018-09-09" AKTIV_K="J" VALDAG_K="2018-09-09" VALKRETS_K="00" VK_NAMN_K="Falun" AKTIV_E="N" VALDAG_E="" LOKAL="Danholnsskolan" ADRESS1="Matsal" ADRESS2="Buskbovägen 5" ADRESS3="" TILLGÄNGL="" LOKAL_KLAR="J" STATUS="E" LATITUD="60.621735" LONGITUD="15.79733">
        <ÖPPETPASS DATUM="2018-09-09" PASS="08:00-20:00" />
      </VALDISTRIKT>
      <VALDISTRIKT KOD="0103" NAMN="Elsborg" AKTIV_R="J" VALDAG_R="2018-09-09" AKTIV_L="J" VALDAG_L="2018-09-09" AKTIV_K="J" VALDAG_K="2018-09-09" VALKRETS_K="00" VK_NAMN_K="Falun" AKTIV_E="N" VALDAG_E="" LOKAL="Södra skolan" ADRESS1="Matsal" ADRESS2="Sturegatan 8" ADRESS3="" TILLGÄNGL="" LOKAL_KLAR="J" STATUS="E" LATITUD="60.599017" LONGITUD="15.634802">
        <ÖPPETPASS DATUM="2018-09-09" PASS="08:00-20:00" />
      </VALDISTRIKT>
      <VALDISTRIKT KOD="1001" NAMN="Enviken" AKTIV_R="J" VALDAG_R="2018-09-09" AKTIV_L="J" VALDAG_L="2018-09-09" AKTIV_K="J" VALDAG_K="2018-09-09" VALKRETS_K="00" VK_NAMN_K="Falun" AKTIV_E="N" VALDAG_E="" LOKAL="Envikens Sockenstuga" ADRESS1="" ADRESS2="Prästgårdsvägen 1" ADRESS3="" TILLGÄNGL="" LOKAL_KLAR="J" STATUS="E" LATITUD="60.807199" LONGITUD="15.767591">
        <ÖPPETPASS DATUM="2018-09-09" PASS="08:00-20:00" />
      </VALDISTRIKT>
      <VALDISTRIKT KOD="0301" NAMN="Gruvan" AKTIV_R="J" VALDAG_R="2018-09-09" AKTIV_L="J" VALDAG_L="2018-09-09" AKTIV_K="J" VALDAG_K="2018-09-09" VALKRETS_K="00" VK_NAMN_K="Falun" AKTIV_E="N" VALDAG_E="" LOKAL="Gruvan" ADRESS1="Kopparberget Konferens" ADRESS2="Gruvplan 1" ADRESS3="" TILLGÄNGL="" LOKAL_KLAR="J" STATUS="E" LATITUD="60.600321" LONGITUD="15.616506">
        <ÖPPETPASS DATUM="2018-09-09" PASS="08:00-20:00" />
      </VALDISTRIKT>
      <VALDISTRIKT KOD="0110" NAMN="Gruvriset" AKTIV_R="J" VALDAG_R="2018-09-09" AKTIV_L="J" VALDAG_L="2018-09-09" AKTIV_K="J" VALDAG_K="2018-09-09" VALKRETS_K="00" VK_NAMN_K="Falun" AKTIV_E="N" VALDAG_E="" LOKAL="Gruvrisskolan" ADRESS1="Matsal" ADRESS2="Tingsvägen 35" ADRESS3="" TILLGÄNGL="" LOKAL_KLAR="J" STATUS="E" LATITUD="60.584103" LONGITUD="15.629225">
        <ÖPPETPASS DATUM="2018-09-09" PASS="08:00-20:00" />
      </VALDISTRIKT>
      <VALDISTRIKT KOD="0210" NAMN="Grycksbo" AKTIV_R="J" VALDAG_R="2018-09-09" AKTIV_L="J" VALDAG_L="2018-09-09" AKTIV_K="J" VALDAG_K="2018-09-09" VALKRETS_K="00" VK_NAMN_K="Falun" AKTIV_E="N" VALDAG_E="" LOKAL="Grycksboskolan" ADRESS1="Matsal" ADRESS2="Drottningvägen 26" ADRESS3="" TILLGÄNGL="" LOKAL_KLAR="J" STATUS="E" LATITUD="60.689498" LONGITUD="15.47887">
        <ÖPPETPASS DATUM="2018-09-09" PASS="08:00-20:00" />
      </VALDISTRIKT>
      <VALDISTRIKT KOD="0303" NAMN="Herrhagen" AKTIV_R="J" VALDAG_R="2018-09-09" AKTIV_L="J" VALDAG_L="2018-09-09" AKTIV_K="J" VALDAG_K="2018-09-09" VALKRETS_K="00" VK_NAMN_K="Falun" AKTIV_E="N" VALDAG_E="" LOKAL="Herrhagsgården" ADRESS1="Samlingssal" ADRESS2="Herrhagsvägen 5" ADRESS3="" TILLGÄNGL="" LOKAL_KLAR="J" STATUS="E" LATITUD="60.619482" LONGITUD="15.609818">
        <ÖPPETPASS DATUM="2018-09-09" PASS="08:00-20:00" />
      </VALDISTRIKT>
      <VALDISTRIKT KOD="0601" NAMN="Hosjö Näs" AKTIV_R="J" VALDAG_R="2018-09-09" AKTIV_L="J" VALDAG_L="2018-09-09" AKTIV_K="J" VALDAG_K="2018-09-09" VALKRETS_K="00" VK_NAMN_K="Falun" AKTIV_E="N" VALDAG_E="" LOKAL="Hosjöskolan" ADRESS1="Matsal" ADRESS2="Skolvägen 2" ADRESS3="" TILLGÄNGL="" LOKAL_KLAR="J" STATUS="E" LATITUD="60.592005" LONGITUD="15.745368">
        <ÖPPETPASS DATUM="2018-09-09" PASS="08:00-20:00" />
      </VALDISTRIKT>
      <VALDISTRIKT KOD="0602" NAMN="Hosjö Sandviken" AKTIV_R="J" VALDAG_R="2018-09-09" AKTIV_L="J" VALDAG_L="2018-09-09" AKTIV_K="J" VALDAG_K="2018-09-09" VALKRETS_K="00" VK_NAMN_K="Falun" AKTIV_E="N" VALDAG_E="" LOKAL="Hosjöskolan" ADRESS1="Gymnastiksal" ADRESS2="Skolvägen 2" ADRESS3="" TILLGÄNGL="" LOKAL_KLAR="J" STATUS="E" LATITUD="60.592005" LONGITUD="15.745368">
        <ÖPPETPASS DATUM="2018-09-09" PASS="08:00-20:00" />
      </VALDISTRIKT>
      <VALDISTRIKT KOD="0104" NAMN="Hyttgården" AKTIV_R="J" VALDAG_R="2018-09-09" AKTIV_L="J" VALDAG_L="2018-09-09" AKTIV_K="J" VALDAG_K="2018-09-09" VALKRETS_K="00" VK_NAMN_K="Falun" AKTIV_E="N" VALDAG_E="" LOKAL="Västra Skolan" ADRESS1="Matsal" ADRESS2="Hyttgatan 27" ADRESS3="" TILLGÄNGL="" LOKAL_KLAR="J" STATUS="E" LATITUD="60.604272" LONGITUD="15.624387">
        <ÖPPETPASS DATUM="2018-09-09" PASS="08:00-20:00" />
      </VALDISTRIKT>
      <VALDISTRIKT KOD="0109" NAMN="Hälsingberg" AKTIV_R="J" VALDAG_R="2018-09-09" AKTIV_L="J" VALDAG_L="2018-09-09" AKTIV_K="J" VALDAG_K="2018-09-09" VALKRETS_K="00" VK_NAMN_K="Falun" AKTIV_E="N" VALDAG_E="" LOKAL="Hälsingbergsskolan" ADRESS1="Matsal" ADRESS2="Lärarvägen 1" ADRESS3="" TILLGÄNGL="" LOKAL_KLAR="J" STATUS="E" LATITUD="60.596791" LONGITUD="15.703856">
        <ÖPPETPASS DATUM="2018-09-09" PASS="08:00-20:00" />
      </VALDISTRIKT>
      <VALDISTRIKT KOD="0108" NAMN="Hälsinggården" AKTIV_R="J" VALDAG_R="2018-09-09" AKTIV_L="J" VALDAG_L="2018-09-09" AKTIV_K="J" VALDAG_K="2018-09-09" VALKRETS_K="00" VK_NAMN_K="Falun" AKTIV_E="N" VALDAG_E="" LOKAL="Stefansgården" ADRESS1="" ADRESS2="Vandrarvägen 2" ADRESS3="" TILLGÄNGL="" LOKAL_KLAR="J" STATUS="E" LATITUD="60.589988" LONGITUD="15.683241">
        <ÖPPETPASS DATUM="2018-09-09" PASS="08:00-20:00" />
      </VALDISTRIKT>
      <VALDISTRIKT KOD="0305" NAMN="Karlberg" AKTIV_R="J" VALDAG_R="2018-09-09" AKTIV_L="J" VALDAG_L="2018-09-09" AKTIV_K="J" VALDAG_K="2018-09-09" VALKRETS_K="00" VK_NAMN_K="Falun" AKTIV_E="N" VALDAG_E="" LOKAL="Britsarvsskolan" ADRESS1="Matsal" ADRESS2="Hellbergs väg 11" ADRESS3="" TILLGÄNGL="" LOKAL_KLAR="J" STATUS="E" LATITUD="60.624713" LONGITUD="15.622025">
        <ÖPPETPASS DATUM="2018-09-09" PASS="08:00-20:00" />
      </VALDISTRIKT>
      <VALDISTRIKT KOD="0111" NAMN="Kristine" AKTIV_R="J" VALDAG_R="2018-09-09" AKTIV_L="J" VALDAG_L="2018-09-09" AKTIV_K="J" VALDAG_K="2018-09-09" VALKRETS_K="00" VK_NAMN_K="Falun" AKTIV_E="N" VALDAG_E="" LOKAL="Kristineskolan" ADRESS1="Entrehall" ADRESS2="Bergmästaregatan 32 A" ADRESS3="" TILLGÄNGL="" LOKAL_KLAR="J" STATUS="E" LATITUD="60.609822" LONGITUD="15.633649">
        <ÖPPETPASS DATUM="2018-09-09" PASS="08:00-20:00" />
      </VALDISTRIKT>
      <VALDISTRIKT KOD="0102" NAMN="Kvarnberget och Ö Främby" AKTIV_R="J" VALDAG_R="2018-09-09" AKTIV_L="J" VALDAG_L="2018-09-09" AKTIV_K="J" VALDAG_K="2018-09-09" VALKRETS_K="00" VK_NAMN_K="Falun" AKTIV_E="N" VALDAG_E="" LOKAL="Främbyskolan" ADRESS1="Matsal" ADRESS2="Torkils väg 2" ADRESS3="" TILLGÄNGL="" LOKAL_KLAR="J" STATUS="E" LATITUD="60.588497" LONGITUD="15.655968">
        <ÖPPETPASS DATUM="2018-09-09" PASS="08:00-20:00" />
      </VALDISTRIKT>
      <VALDISTRIKT KOD="0307" NAMN="Kyrkbacken" AKTIV_R="J" VALDAG_R="2018-09-09" AKTIV_L="J" VALDAG_L="2018-09-09" AKTIV_K="J" VALDAG_K="2018-09-09" VALKRETS_K="00" VK_NAMN_K="Falun" AKTIV_E="N" VALDAG_E="" LOKAL="Mariagården" ADRESS1="Samlingssal" ADRESS2="Seminariegatan 1" ADRESS3="" TILLGÄNGL="" LOKAL_KLAR="J" STATUS="E" LATITUD="60.615134" LONGITUD="15.626371">
        <ÖPPETPASS DATUM="2018-09-09" PASS="08:00-20:00" />
      </VALDISTRIKT>
      <VALDISTRIKT KOD="0101" NAMN="Källviken och V Främby" AKTIV_R="J" VALDAG_R="2018-09-09" AKTIV_L="J" VALDAG_L="2018-09-09" AKTIV_K="J" VALDAG_K="2018-09-09" VALKRETS_K="00" VK_NAMN_K="Falun" AKTIV_E="N" VALDAG_E="" LOKAL="Främbyskolan" ADRESS1="Matsal" ADRESS2="Torkils väg 2" ADRESS3="" TILLGÄNGL="" LOKAL_KLAR="J" STATUS="E" LATITUD="60.588497" LONGITUD="15.655968">
        <ÖPPETPASS DATUM="2018-09-09" PASS="08:00-20:00" />
      </VALDISTRIKT>
      <VALDISTRIKT KOD="0105" NAMN="Kämparvet" AKTIV_R="J" VALDAG_R="2018-09-09" AKTIV_L="J" VALDAG_L="2018-09-09" AKTIV_K="J" VALDAG_K="2018-09-09" VALKRETS_K="00" VK_NAMN_K="Falun" AKTIV_E="N" VALDAG_E="" LOKAL="Kristineskolan" ADRESS1="Entréhall" ADRESS2="Bergmästaregatan 32 A" ADRESS3="" TILLGÄNGL="" LOKAL_KLAR="J" STATUS="E" LATITUD="60.609848" LONGITUD="15.633503">
        <ÖPPETPASS DATUM="2018-09-09" PASS="08:00-20:00" />
      </VALDISTRIKT>
      <VALDISTRIKT KOD="0801" NAMN="Linghed" AKTIV_R="J" VALDAG_R="2018-09-09" AKTIV_L="J" VALDAG_L="2018-09-09" AKTIV_K="J" VALDAG_K="2018-09-09" VALKRETS_K="00" VK_NAMN_K="Falun" AKTIV_E="N" VALDAG_E="" LOKAL="Linghedsskolan" ADRESS1="Klassrum" ADRESS2="Byvägen 26" ADRESS3="" TILLGÄNGL="" LOKAL_KLAR="J" STATUS="E" LATITUD="60.783752" LONGITUD="15.860873">
        <ÖPPETPASS DATUM="2018-09-09" PASS="08:00-20:00" />
      </VALDISTRIKT>
      <VALDISTRIKT KOD="0308" NAMN="Lugnet" AKTIV_R="J" VALDAG_R="2018-09-09" AKTIV_L="J" VALDAG_L="2018-09-09" AKTIV_K="J" VALDAG_K="2018-09-09" VALKRETS_K="00" VK_NAMN_K="Falun" AKTIV_E="N" VALDAG_E="" LOKAL="Lugnetskolan" ADRESS1="Aulan" ADRESS2="Lugnetvägen 3" ADRESS3="" TILLGÄNGL="" LOKAL_KLAR="J" STATUS="E" LATITUD="60.615065" LONGITUD="15.657671">
        <ÖPPETPASS DATUM="2018-09-09" PASS="08:00-20:00" />
      </VALDISTRIKT>
      <VALDISTRIKT KOD="0106" NAMN="Nedre Norslund" AKTIV_R="J" VALDAG_R="2018-09-09" AKTIV_L="J" VALDAG_L="2018-09-09" AKTIV_K="J" VALDAG_K="2018-09-09" VALKRETS_K="00" VK_NAMN_K="Falun" AKTIV_E="N" VALDAG_E="" LOKAL="Norslund" ADRESS1="Fritidsgård" ADRESS2="Kungsgårdsvägen 34-36" ADRESS3="" TILLGÄNGL="" LOKAL_KLAR="J" STATUS="E" LATITUD="60.600974" LONGITUD="15.665804">
        <ÖPPETPASS DATUM="2018-09-09" PASS="08:00-20:00" />
      </VALDISTRIKT>
      <VALDISTRIKT KOD="0112" NAMN="Pilbo-Samuelsdal" AKTIV_R="J" VALDAG_R="2018-09-09" AKTIV_L="J" VALDAG_L="2018-09-09" AKTIV_K="J" VALDAG_K="2018-09-09" VALKRETS_K="00" VK_NAMN_K="Falun" AKTIV_E="N" VALDAG_E="" LOKAL="Gruvrisskolan" ADRESS1="Korridor" ADRESS2="" ADRESS3="" TILLGÄNGL="" LOKAL_KLAR="J" STATUS="E" LATITUD="60.584" LONGITUD="15.628">
        <ÖPPETPASS DATUM="2018-09-09" PASS="08:00-20:00" />
      </VALDISTRIKT>
      <VALDISTRIKT KOD="0309" NAMN="Slätta" AKTIV_R="J" VALDAG_R="2018-09-09" AKTIV_L="J" VALDAG_L="2018-09-09" AKTIV_K="J" VALDAG_K="2018-09-09" VALKRETS_K="00" VK_NAMN_K="Falun" AKTIV_E="N" VALDAG_E="" LOKAL="Slättaskolan" ADRESS1="Mars" ADRESS2="Slätta Centrum" ADRESS3="" TILLGÄNGL="" LOKAL_KLAR="J" STATUS="E" LATITUD="60.621473" LONGITUD="15.597623">
        <ÖPPETPASS DATUM="2018-09-09" PASS="08:00-20:00" />
      </VALDISTRIKT>
      <VALDISTRIKT KOD="0302" NAMN="Stenslund" AKTIV_R="J" VALDAG_R="2018-09-09" AKTIV_L="J" VALDAG_L="2018-09-09" AKTIV_K="J" VALDAG_K="2018-09-09" VALKRETS_K="00" VK_NAMN_K="Falun" AKTIV_E="N" VALDAG_E="" LOKAL="Slättaskolan, Samlaren" ADRESS1="" ADRESS2="Slätta Centrum" ADRESS3="" TILLGÄNGL="" LOKAL_KLAR="J" STATUS="E" LATITUD="60.621471" LONGITUD="15.595797">
        <ÖPPETPASS DATUM="2018-09-09" PASS="08:00-20:00" />
      </VALDISTRIKT>
      <VALDISTRIKT KOD="0701" NAMN="Sundbornsbyn" AKTIV_R="J" VALDAG_R="2018-09-09" AKTIV_L="J" VALDAG_L="2018-09-09" AKTIV_K="J" VALDAG_K="2018-09-09" VALKRETS_K="00" VK_NAMN_K="Falun" AKTIV_E="N" VALDAG_E="" LOKAL="Sundbornsskolan" ADRESS1="Matsal" ADRESS2="Ramsnäsvägen 38" ADRESS3="" TILLGÄNGL="" LOKAL_KLAR="J" STATUS="E" LATITUD="60.654237" LONGITUD="15.772456">
        <ÖPPETPASS DATUM="2018-09-09" PASS="08:00-20:00" />
      </VALDISTRIKT>
      <VALDISTRIKT KOD="0501" NAMN="Vika" AKTIV_R="J" VALDAG_R="2018-09-09" AKTIV_L="J" VALDAG_L="2018-09-09" AKTIV_K="J" VALDAG_K="2018-09-09" VALKRETS_K="00" VK_NAMN_K="Falun" AKTIV_E="N" VALDAG_E="" LOKAL="Vika Församlingshem" ADRESS1="Samlingssal" ADRESS2="Vikavägen 128" ADRESS3="" TILLGÄNGL="" LOKAL_KLAR="J" STATUS="E" LATITUD="60.516859" LONGITUD="15.714359">
        <ÖPPETPASS DATUM="2018-09-09" PASS="08:00-20:00" />
      </VALDISTRIKT>
      <VALDISTRIKT KOD="0304" NAMN="Ångbryggeriet" AKTIV_R="J" VALDAG_R="2018-09-09" AKTIV_L="J" VALDAG_L="2018-09-09" AKTIV_K="J" VALDAG_K="2018-09-09" VALKRETS_K="00" VK_NAMN_K="Falun" AKTIV_E="N" VALDAG_E="" LOKAL="Östra Skolan" ADRESS1="Matsal" ADRESS2="Magasinsgatan 11" ADRESS3="" TILLGÄNGL="" LOKAL_KLAR="J" STATUS="E" LATITUD="60.611469" LONGITUD="15.63081">
        <ÖPPETPASS DATUM="2018-09-09" PASS="08:00-20:00" />
      </VALDISTRIKT>
      <VALDISTRIKT KOD="0311" NAMN="Östanfors" AKTIV_R="J" VALDAG_R="2018-09-09" AKTIV_L="J" VALDAG_L="2018-09-09" AKTIV_K="J" VALDAG_K="2018-09-09" VALKRETS_K="00" VK_NAMN_K="Falun" AKTIV_E="N" VALDAG_E="" LOKAL="Östra Skolan" ADRESS1="Klassrum" ADRESS2="Magasinsgatan 11" ADRESS3="" TILLGÄNGL="" LOKAL_KLAR="J" STATUS="E" LATITUD="60.611469" LONGITUD="15.63081">
        <ÖPPETPASS DATUM="2018-09-09" PASS="08:00-20:00" />
      </VALDISTRIKT>
      <VALDISTRIKT KOD="0107" NAMN="Övre Norslund" AKTIV_R="J" VALDAG_R="2018-09-09" AKTIV_L="J" VALDAG_L="2018-09-09" AKTIV_K="J" VALDAG_K="2018-09-09" VALKRETS_K="00" VK_NAMN_K="Falun" AKTIV_E="N" VALDAG_E="" LOKAL="Nordslund" ADRESS1="Fritidsgård" ADRESS2="Kungsgårdsvägen 34-36" ADRESS3="" TILLGÄNGL="" LOKAL_KLAR="J" STATUS="E" LATITUD="60.600974" LONGITUD="15.665804">
        <ÖPPETPASS DATUM="2018-09-09" PASS="08:00-20:00" />
      </VALDISTRIKT>
    </KOMMUN>
    <KOMMUN KOD="26" NAMN="Gagnef" VALNAMND="Valnämnden i Gagnefs kommun" HEMSIDA="www.gagnef.se" TELNR="0241-15100" KLAR="J">
      <VALDISTRIKT KOD="0302" NAMN="Björbo" AKTIV_R="J" VALDAG_R="2018-09-09" AKTIV_L="J" VALDAG_L="2018-09-09" AKTIV_K="J" VALDAG_K="2018-09-09" VALKRETS_K="00" VK_NAMN_K="Gagnef" AKTIV_E="N" VALDAG_E="" LOKAL="Björbo Skola" ADRESS1="" ADRESS2="Rimgattu 6G" ADRESS3="" TILLGÄNGL="Handikappanpassad" LOKAL_KLAR="J" STATUS="E" LATITUD="60.459419" LONGITUD="14.712703">
        <ÖPPETPASS DATUM="2018-09-09" PASS="08:00-20:00" />
      </VALDISTRIKT>
      <VALDISTRIKT KOD="0301" NAMN="Floda" AKTIV_R="J" VALDAG_R="2018-09-09" AKTIV_L="J" VALDAG_L="2018-09-09" AKTIV_K="J" VALDAG_K="2018-09-09" VALKRETS_K="00" VK_NAMN_K="Gagnef" AKTIV_E="N" VALDAG_E="" LOKAL="Församlingshemmet" ADRESS1="" ADRESS2="Kyrkbyvägen 17" ADRESS3="" TILLGÄNGL="Handikappanpassad" LOKAL_KLAR="J" STATUS="E" LATITUD="60.50628" LONGITUD="14.794505">
        <ÖPPETPASS DATUM="2018-09-09" PASS="08:00-20:00" />
      </VALDISTRIKT>
      <VALDISTRIKT KOD="0201" NAMN="Gagnefs 1" AKTIV_R="J" VALDAG_R="2018-09-09" AKTIV_L="J" VALDAG_L="2018-09-09" AKTIV_K="J" VALDAG_K="2018-09-09" VALKRETS_K="00" VK_NAMN_K="Gagnef" AKTIV_E="N" VALDAG_E="" LOKAL="Församlingshemmet" ADRESS1="" ADRESS2="Kyrkbyvägen 35" ADRESS3="" TILLGÄNGL="Handikappanpassad" LOKAL_KLAR="J" STATUS="E" LATITUD="60.590244" LONGITUD="15.063504">
        <ÖPPETPASS DATUM="2018-09-09" PASS="08:00-20:00" />
      </VALDISTRIKT>
      <VALDISTRIKT KOD="0202" NAMN="Gagnefs 2" AKTIV_R="J" VALDAG_R="2018-09-09" AKTIV_L="J" VALDAG_L="2018-09-09" AKTIV_K="J" VALDAG_K="2018-09-09" VALKRETS_K="00" VK_NAMN_K="Gagnef" AKTIV_E="N" VALDAG_E="" LOKAL="Djurås Skola" ADRESS1="" ADRESS2="Färjbacksvägen 13-15" ADRESS3="" TILLGÄNGL="Handikappanpassad" LOKAL_KLAR="J" STATUS="E" LATITUD="60.556978" LONGITUD="15.134102">
        <ÖPPETPASS DATUM="2018-09-09" PASS="08:00-20:00" />
      </VALDISTRIKT>
      <VALDISTRIKT KOD="0203" NAMN="Gagnefs 3" AKTIV_R="J" VALDAG_R="2018-09-09" AKTIV_L="J" VALDAG_L="2018-09-09" AKTIV_K="J" VALDAG_K="2018-09-09" VALKRETS_K="00" VK_NAMN_K="Gagnef" AKTIV_E="N" VALDAG_E="" LOKAL="Bäsna Skola" ADRESS1="" ADRESS2="Bäsnavägen 23 A" ADRESS3="" TILLGÄNGL="Handikappanpassad" LOKAL_KLAR="J" STATUS="E" LATITUD="60.535311" LONGITUD="15.19944">
        <ÖPPETPASS DATUM="2018-09-09" PASS="08:00-20:00" />
      </VALDISTRIKT>
      <VALDISTRIKT KOD="0204" NAMN="Gagnefs 4" AKTIV_R="J" VALDAG_R="2018-09-09" AKTIV_L="J" VALDAG_L="2018-09-09" AKTIV_K="J" VALDAG_K="2018-09-09" VALKRETS_K="00" VK_NAMN_K="Gagnef" AKTIV_E="N" VALDAG_E="" LOKAL="Djurmoskolan" ADRESS1="" ADRESS2="Movägen 60" ADRESS3="" TILLGÄNGL="Handikappanpassad" LOKAL_KLAR="J" STATUS="E" LATITUD="60.550674" LONGITUD="15.204911">
        <ÖPPETPASS DATUM="2018-09-09" PASS="08:00-20:00" />
      </VALDISTRIKT>
      <VALDISTRIKT KOD="0105" NAMN="Mockfjärd" AKTIV_R="J" VALDAG_R="2018-09-09" AKTIV_L="J" VALDAG_L="2018-09-09" AKTIV_K="J" VALDAG_K="2018-09-09" VALKRETS_K="00" VK_NAMN_K="Gagnef" AKTIV_E="N" VALDAG_E="" LOKAL="Församlingsgården" ADRESS1="" ADRESS2="Hedvägen 19" ADRESS3="" TILLGÄNGL="Handikappanpassad" LOKAL_KLAR="J" STATUS="E" LATITUD="60.499274" LONGITUD="14.964357">
        <ÖPPETPASS DATUM="2018-09-09" PASS="08:00-20:00" />
      </VALDISTRIKT>
    </KOMMUN>
    <KOMMUN KOD="83" NAMN="Hedemora" VALNAMND="Valnämnden i Hedemora kommun" HEMSIDA="www.hedemora.se" TELNR="0225-34107" KLAR="J">
      <VALDISTRIKT KOD="0206" NAMN="Garpenberg" AKTIV_R="J" VALDAG_R="2018-09-09" AKTIV_L="J" VALDAG_L="2018-09-09" AKTIV_K="J" VALDAG_K="2018-09-09" VALKRETS_K="00" VK_NAMN_K="Hedemora" AKTIV_E="N" VALDAG_E="" LOKAL="Församlingshemmet" ADRESS1="" ADRESS2="Kyrkbacken 8" ADRESS3="" TILLGÄNGL="Ramp" LOKAL_KLAR="J" STATUS="E" LATITUD="60.313922" LONGITUD="16.205298">
        <ÖPPETPASS DATUM="2018-09-09" PASS="08:00-20:00" />
      </VALDISTRIKT>
      <VALDISTRIKT KOD="0103" NAMN="Hedemora NV" AKTIV_R="J" VALDAG_R="2018-09-09" AKTIV_L="J" VALDAG_L="2018-09-09" AKTIV_K="J" VALDAG_K="2018-09-09" VALKRETS_K="00" VK_NAMN_K="Hedemora" AKTIV_E="N" VALDAG_E="" LOKAL="Förskolan Regnbågen" ADRESS1="Avdelningen Gul (fd. Åskan)" ADRESS2="Tunvägen 1" ADRESS3="" TILLGÄNGL="" LOKAL_KLAR="J" STATUS="E" LATITUD="60.281628" LONGITUD="15.967417">
        <ÖPPETPASS DATUM="2018-09-09" PASS="08:00-20:00" />
      </VALDISTRIKT>
      <VALDISTRIKT KOD="0102" NAMN="Hedemora NÖ" AKTIV_R="J" VALDAG_R="2018-09-09" AKTIV_L="J" VALDAG_L="2018-09-09" AKTIV_K="J" VALDAG_K="2018-09-09" VALKRETS_K="00" VK_NAMN_K="Hedemora" AKTIV_E="N" VALDAG_E="" LOKAL="IOGT-lokalen" ADRESS1="Fd Gussarvsskolan" ADRESS2="Melinsgatan 7" ADRESS3="" TILLGÄNGL="Ramp" LOKAL_KLAR="J" STATUS="E" LATITUD="60.283578" LONGITUD="15.986931">
        <ÖPPETPASS DATUM="2018-09-09" PASS="08:00-20:00" />
      </VALDISTRIKT>
      <VALDISTRIKT KOD="0101" NAMN="Hedemora SV" AKTIV_R="J" VALDAG_R="2018-09-09" AKTIV_L="J" VALDAG_L="2018-09-09" AKTIV_K="J" VALDAG_K="2018-09-09" VALKRETS_K="00" VK_NAMN_K="Hedemora" AKTIV_E="N" VALDAG_E="" LOKAL="Stureskolan" ADRESS1="Matsalen" ADRESS2="Brunnsjögatan 7" ADRESS3="" TILLGÄNGL="" LOKAL_KLAR="J" STATUS="E" LATITUD="60.276703" LONGITUD="15.979845">
        <ÖPPETPASS DATUM="2018-09-09" PASS="08:00-20:00" />
      </VALDISTRIKT>
      <VALDISTRIKT KOD="0104" NAMN="Hedemora SÖ" AKTIV_R="J" VALDAG_R="2018-09-09" AKTIV_L="J" VALDAG_L="2018-09-09" AKTIV_K="J" VALDAG_K="2018-09-09" VALKRETS_K="00" VK_NAMN_K="Hedemora" AKTIV_E="N" VALDAG_E="" LOKAL="Receptionen Tjädernhuset" ADRESS1="Kommunhuset, Tjädernhuset" ADRESS2="Hökargatan 6" ADRESS3="" TILLGÄNGL="Markplan" LOKAL_KLAR="J" STATUS="E" LATITUD="60.277716" LONGITUD="15.987332">
        <ÖPPETPASS DATUM="2018-09-09" PASS="08:00-20:00" />
      </VALDISTRIKT>
      <VALDISTRIKT KOD="0307" NAMN="Husby" AKTIV_R="J" VALDAG_R="2018-09-09" AKTIV_L="J" VALDAG_L="2018-09-09" AKTIV_K="J" VALDAG_K="2018-09-09" VALKRETS_K="00" VK_NAMN_K="Hedemora" AKTIV_E="N" VALDAG_E="" LOKAL="Smedby Skola" ADRESS1="Sporthallen" ADRESS2="Smedbyvägen 2" ADRESS3="" TILLGÄNGL="" LOKAL_KLAR="J" STATUS="E" LATITUD="60.389216" LONGITUD="15.999448">
        <ÖPPETPASS DATUM="2018-09-09" PASS="08:00-20:00" />
      </VALDISTRIKT>
      <VALDISTRIKT KOD="0308" NAMN="Långshyttan" AKTIV_R="J" VALDAG_R="2018-09-09" AKTIV_L="J" VALDAG_L="2018-09-09" AKTIV_K="J" VALDAG_K="2018-09-09" VALKRETS_K="00" VK_NAMN_K="Hedemora" AKTIV_E="N" VALDAG_E="" LOKAL="Långshyttans Folkets Hus" ADRESS1="" ADRESS2="Björkallén 1" ADRESS3="" TILLGÄNGL="" LOKAL_KLAR="J" STATUS="E" LATITUD="60.454331" LONGITUD="16.033051">
        <ÖPPETPASS DATUM="2018-09-09" PASS="08:00-20:00" />
      </VALDISTRIKT>
      <VALDISTRIKT KOD="0105" NAMN="Vikmanshyttan" AKTIV_R="J" VALDAG_R="2018-09-09" AKTIV_L="J" VALDAG_L="2018-09-09" AKTIV_K="J" VALDAG_K="2018-09-09" VALKRETS_K="00" VK_NAMN_K="Hedemora" AKTIV_E="N" VALDAG_E="" LOKAL="Gästgården, fd. Folkets Hus" ADRESS1="Rotundan" ADRESS2="Hedemoravägen 11" ADRESS3="" TILLGÄNGL="" LOKAL_KLAR="J" STATUS="E" LATITUD="60.296937" LONGITUD="15.825755">
        <ÖPPETPASS DATUM="2018-09-09" PASS="08:00-20:00" />
      </VALDISTRIKT>
    </KOMMUN>
    <KOMMUN KOD="29" NAMN="Leksand" VALNAMND="Valnämnden i Leksands kommun" HEMSIDA="www.leksand.se" TELNR="0247-80000" KLAR="J">
      <VALDISTRIKT KOD="0102" NAMN="Edshult - Åkerö - Övermo mfl" AKTIV_R="J" VALDAG_R="2018-09-09" AKTIV_L="J" VALDAG_L="2018-09-09" AKTIV_K="J" VALDAG_K="2018-09-09" VALKRETS_K="00" VK_NAMN_K="Leksand" AKTIV_E="N" VALDAG_E="" LOKAL="Åkerö skola" ADRESS1="Kafeterian, B-huset" ADRESS2="Gamla Siljansnäsvägen 15" ADRESS3="" TILLGÄNGL="Tillgänglig för rullstol och rollator." LOKAL_KLAR="J" STATUS="E" LATITUD="60.72442" LONGITUD="14.998934">
        <ÖPPETPASS DATUM="2018-09-09" PASS="08:00-20:00" />
      </VALDISTRIKT>
      <VALDISTRIKT KOD="0103" NAMN="Häradsbygden - Heden - Djura mfl" AKTIV_R="J" VALDAG_R="2018-09-09" AKTIV_L="J" VALDAG_L="2018-09-09" AKTIV_K="J" VALDAG_K="2018-09-09" VALKRETS_K="00" VK_NAMN_K="Leksand" AKTIV_E="N" VALDAG_E="" LOKAL="Gärde Skola" ADRESS1="Häradsbygden" ADRESS2="Byskolvägen 2" ADRESS3="" TILLGÄNGL="Tillgänglig för rullstol och rollator." LOKAL_KLAR="J" STATUS="E" LATITUD="60.701166" LONGITUD="15.047214">
        <ÖPPETPASS DATUM="2018-09-09" PASS="08:00-20:00" />
      </VALDISTRIKT>
      <VALDISTRIKT KOD="0311" NAMN="Insjön V - Ål-Kilen" AKTIV_R="J" VALDAG_R="2018-09-09" AKTIV_L="J" VALDAG_L="2018-09-09" AKTIV_K="J" VALDAG_K="2018-09-09" VALKRETS_K="00" VK_NAMN_K="Leksand" AKTIV_E="N" VALDAG_E="" LOKAL="Tunsta bystuga" ADRESS1="" ADRESS2="Parallellvägen 1" ADRESS3="" TILLGÄNGL="" LOKAL_KLAR="J" STATUS="E" LATITUD="60.677875" LONGITUD="15.081247">
        <ÖPPETPASS DATUM="2018-09-09" PASS="08:00-20:00" />
      </VALDISTRIKT>
      <VALDISTRIKT KOD="0301" NAMN="Insjön Ö" AKTIV_R="J" VALDAG_R="2018-09-09" AKTIV_L="J" VALDAG_L="2018-09-09" AKTIV_K="J" VALDAG_K="2018-09-09" VALKRETS_K="00" VK_NAMN_K="Leksand" AKTIV_E="N" VALDAG_E="" LOKAL="Insjöns skola" ADRESS1="Huvudentrén" ADRESS2="Skolvägen 16" ADRESS3="" TILLGÄNGL="Tillgänglig för rullstol och rollator." LOKAL_KLAR="J" STATUS="E" LATITUD="60.683389" LONGITUD="15.096934">
        <ÖPPETPASS DATUM="2018-09-09" PASS="08:00-20:00" />
      </VALDISTRIKT>
      <VALDISTRIKT KOD="0104" NAMN="Leksandsnoret" AKTIV_R="J" VALDAG_R="2018-09-09" AKTIV_L="J" VALDAG_L="2018-09-09" AKTIV_K="J" VALDAG_K="2018-09-09" VALKRETS_K="00" VK_NAMN_K="Leksand" AKTIV_E="N" VALDAG_E="" LOKAL="Kommunhuset" ADRESS1="Leksand" ADRESS2="Torget 5" ADRESS3="" TILLGÄNGL="Tillgänglig för rullstol och rollator." LOKAL_KLAR="J" STATUS="E" LATITUD="60.732315" LONGITUD="14.997487">
        <ÖPPETPASS DATUM="2018-09-09" PASS="08:00-20:00" />
      </VALDISTRIKT>
      <VALDISTRIKT KOD="0110" NAMN="Leksand V" AKTIV_R="J" VALDAG_R="2018-09-09" AKTIV_L="J" VALDAG_L="2018-09-09" AKTIV_K="J" VALDAG_K="2018-09-09" VALKRETS_K="00" VK_NAMN_K="Leksand" AKTIV_E="N" VALDAG_E="" LOKAL="Leksands gymnasium" ADRESS1="Skolgatan" ADRESS2="Rättviksvägen 29" ADRESS3="" TILLGÄNGL="Tillgänglig för rullstol och rollator." LOKAL_KLAR="J" STATUS="E" LATITUD="60.733154" LONGITUD="14.988806">
        <ÖPPETPASS DATUM="2018-09-09" PASS="08:00-20:00" />
      </VALDISTRIKT>
      <VALDISTRIKT KOD="0106" NAMN="Leksand Ö" AKTIV_R="J" VALDAG_R="2018-09-09" AKTIV_L="J" VALDAG_L="2018-09-09" AKTIV_K="J" VALDAG_K="2018-09-09" VALKRETS_K="00" VK_NAMN_K="Leksand" AKTIV_E="N" VALDAG_E="" LOKAL="Tibble servicehus" ADRESS1="Samlingssalen" ADRESS2="Lyckavägen 2" ADRESS3="" TILLGÄNGL="Tillgänglig för rullstol och rollator." LOKAL_KLAR="J" STATUS="E" LATITUD="60.731921" LONGITUD="15.026474">
        <ÖPPETPASS DATUM="2018-09-09" PASS="08:00-20:00" />
      </VALDISTRIKT>
      <VALDISTRIKT KOD="0401" NAMN="Siljansnäs" AKTIV_R="J" VALDAG_R="2018-09-09" AKTIV_L="J" VALDAG_L="2018-09-09" AKTIV_K="J" VALDAG_K="2018-09-09" VALKRETS_K="00" VK_NAMN_K="Leksand" AKTIV_E="N" VALDAG_E="" LOKAL="Björkbackens servicehus" ADRESS1="Samlingssalen" ADRESS2="Husåkersgattu 20" ADRESS3="" TILLGÄNGL="Tillgänglig för rullstol och rollator." LOKAL_KLAR="J" STATUS="E" LATITUD="60.778244" LONGITUD="14.863256">
        <ÖPPETPASS DATUM="2018-09-09" PASS="08:00-20:00" />
      </VALDISTRIKT>
      <VALDISTRIKT KOD="0108" NAMN="Tällberg mfl" AKTIV_R="J" VALDAG_R="2018-09-09" AKTIV_L="J" VALDAG_L="2018-09-09" AKTIV_K="J" VALDAG_K="2018-09-09" VALKRETS_K="00" VK_NAMN_K="Leksand" AKTIV_E="N" VALDAG_E="" LOKAL="Tällbergs förskola" ADRESS1="Matsalen" ADRESS2="Tällbergsvägen 50" ADRESS3="" TILLGÄNGL="Tillgänglig för rullstol och rollator." LOKAL_KLAR="J" STATUS="E" LATITUD="60.823669" LONGITUD="15.007607">
        <ÖPPETPASS DATUM="2018-09-09" PASS="08:00-20:00" />
      </VALDISTRIKT>
    </KOMMUN>
    <KOMMUN KOD="85" NAMN="Ludvika" VALNAMND="Valnämnden i Ludvika kommun" HEMSIDA="www.ludvika.se" TELNR="0240-86 000" KLAR="J">
      <VALDISTRIKT KOD="0203" NAMN="Björkås" AKTIV_R="J" VALDAG_R="2018-09-09" AKTIV_L="J" VALDAG_L="2018-09-09" AKTIV_K="J" VALDAG_K="2018-09-09" VALKRETS_K="00" VK_NAMN_K="Ludvika" AKTIV_E="N" VALDAG_E="" LOKAL="Granlidens äldreboende" ADRESS1="Samlingssalen" ADRESS2="Björkallén 69, Grängesberg" ADRESS3="" TILLGÄNGL="" LOKAL_KLAR="J" STATUS="E" LATITUD="60.086508" LONGITUD="15.01228">
        <ÖPPETPASS DATUM="2018-09-09" PASS="08:00-20:00" />
      </VALDISTRIKT>
      <VALDISTRIKT KOD="0108" NAMN="Blötberget-Gonäs" AKTIV_R="J" VALDAG_R="2018-09-09" AKTIV_L="J" VALDAG_L="2018-09-09" AKTIV_K="J" VALDAG_K="2018-09-09" VALKRETS_K="00" VK_NAMN_K="Ludvika" AKTIV_E="N" VALDAG_E="" LOKAL="Blötbergets skolas matsal" ADRESS1="" ADRESS2="Saxdalsvägen 1, Blötberget" ADRESS3="" TILLGÄNGL="" LOKAL_KLAR="J" STATUS="E" LATITUD="60.125388" LONGITUD="15.065925">
        <ÖPPETPASS DATUM="2018-09-09" PASS="08:00-20:00" />
      </VALDISTRIKT>
      <VALDISTRIKT KOD="0401" NAMN="Fredriksberg" AKTIV_R="J" VALDAG_R="2018-09-09" AKTIV_L="J" VALDAG_L="2018-09-09" AKTIV_K="J" VALDAG_K="2018-09-09" VALKRETS_K="00" VK_NAMN_K="Ludvika" AKTIV_E="N" VALDAG_E="" LOKAL="Folkets Hus" ADRESS1="" ADRESS2="Ludvikav 22, Fredriksberg" ADRESS3="" TILLGÄNGL="" LOKAL_KLAR="J" STATUS="E" LATITUD="60.13849" LONGITUD="14.378036">
        <ÖPPETPASS DATUM="2018-09-09" PASS="08:00-20:00" />
      </VALDISTRIKT>
      <VALDISTRIKT KOD="0104" NAMN="Högberget" AKTIV_R="J" VALDAG_R="2018-09-09" AKTIV_L="J" VALDAG_L="2018-09-09" AKTIV_K="J" VALDAG_K="2018-09-09" VALKRETS_K="00" VK_NAMN_K="Ludvika" AKTIV_E="N" VALDAG_E="" LOKAL="Vasaskolans matsal" ADRESS1="" ADRESS2="Uppfartsvägen 2" ADRESS3="" TILLGÄNGL="" LOKAL_KLAR="J" STATUS="E" LATITUD="60.144359" LONGITUD="15.185621">
        <ÖPPETPASS DATUM="2018-09-09" PASS="08:00-20:00" />
      </VALDISTRIKT>
      <VALDISTRIKT KOD="0112" NAMN="Karlberg" AKTIV_R="J" VALDAG_R="2018-09-09" AKTIV_L="J" VALDAG_L="2018-09-09" AKTIV_K="J" VALDAG_K="2018-09-09" VALKRETS_K="00" VK_NAMN_K="Ludvika" AKTIV_E="N" VALDAG_E="" LOKAL="Marnäsliden" ADRESS1="Matsalen, entréplanet" ADRESS2="Biskopsvägen 10" ADRESS3="" TILLGÄNGL="" LOKAL_KLAR="J" STATUS="E" LATITUD="60.154857" LONGITUD="15.200523">
        <ÖPPETPASS DATUM="2018-09-09" PASS="08:00-20:00" />
      </VALDISTRIKT>
      <VALDISTRIKT KOD="0114" NAMN="Knutsbo" AKTIV_R="J" VALDAG_R="2018-09-09" AKTIV_L="J" VALDAG_L="2018-09-09" AKTIV_K="J" VALDAG_K="2018-09-09" VALKRETS_K="00" VK_NAMN_K="Ludvika" AKTIV_E="N" VALDAG_E="" LOKAL="Knutsbo förskola" ADRESS1="" ADRESS2="Smultronstigen 13" ADRESS3="" TILLGÄNGL="" LOKAL_KLAR="J" STATUS="E" LATITUD="60.124824" LONGITUD="15.210375">
        <ÖPPETPASS DATUM="2018-09-09" PASS="08:00-20:00" />
      </VALDISTRIKT>
      <VALDISTRIKT KOD="0307" NAMN="Kyrkbyn-Nyhammar" AKTIV_R="J" VALDAG_R="2018-09-09" AKTIV_L="J" VALDAG_L="2018-09-09" AKTIV_K="J" VALDAG_K="2018-09-09" VALKRETS_K="00" VK_NAMN_K="Ludvika" AKTIV_E="N" VALDAG_E="" LOKAL="Sockenstugan Grangärde" ADRESS1="" ADRESS2="Gamla vägen 38, Grangärde" ADRESS3="" TILLGÄNGL="" LOKAL_KLAR="J" STATUS="E" LATITUD="60.259206" LONGITUD="14.978983">
        <ÖPPETPASS DATUM="2018-09-09" PASS="08:00-20:00" />
      </VALDISTRIKT>
      <VALDISTRIKT KOD="0110" NAMN="Lorentsberga" AKTIV_R="J" VALDAG_R="2018-09-09" AKTIV_L="J" VALDAG_L="2018-09-09" AKTIV_K="J" VALDAG_K="2018-09-09" VALKRETS_K="00" VK_NAMN_K="Ludvika" AKTIV_E="N" VALDAG_E="" LOKAL="Lorensbergaskolan" ADRESS1="Kapphallen" ADRESS2="Skolvägen 1" ADRESS3="" TILLGÄNGL="" LOKAL_KLAR="J" STATUS="E" LATITUD="60.126752" LONGITUD="15.180529">
        <ÖPPETPASS DATUM="2018-09-09" PASS="08:00-20:00" />
      </VALDISTRIKT>
      <VALDISTRIKT KOD="0113" NAMN="Ludvika gård" AKTIV_R="J" VALDAG_R="2018-09-09" AKTIV_L="J" VALDAG_L="2018-09-09" AKTIV_K="J" VALDAG_K="2018-09-09" VALKRETS_K="00" VK_NAMN_K="Ludvika" AKTIV_E="N" VALDAG_E="" LOKAL="Lingongårdens samlingssal" ADRESS1="Ludvika Gård" ADRESS2="Lingongården 8, Ludvika" ADRESS3="" TILLGÄNGL="" LOKAL_KLAR="J" STATUS="E" LATITUD="60.131923" LONGITUD="15.184113">
        <ÖPPETPASS DATUM="2018-09-09" PASS="08:00-20:00" />
      </VALDISTRIKT>
      <VALDISTRIKT KOD="0101" NAMN="Ludvika Ulrika" AKTIV_R="J" VALDAG_R="2018-09-09" AKTIV_L="J" VALDAG_L="2018-09-09" AKTIV_K="J" VALDAG_K="2018-09-09" VALKRETS_K="00" VK_NAMN_K="Ludvika" AKTIV_E="N" VALDAG_E="" LOKAL="Församlingsgården" ADRESS1="" ADRESS2="Faluvägen 1" ADRESS3="" TILLGÄNGL="" LOKAL_KLAR="J" STATUS="E" LATITUD="60.153586" LONGITUD="15.190871">
        <ÖPPETPASS DATUM="2018-09-09" PASS="08:00-20:00" />
      </VALDISTRIKT>
      <VALDISTRIKT KOD="0103" NAMN="Magneten" AKTIV_R="J" VALDAG_R="2018-09-09" AKTIV_L="J" VALDAG_L="2018-09-09" AKTIV_K="J" VALDAG_K="2018-09-09" VALKRETS_K="00" VK_NAMN_K="Ludvika" AKTIV_E="N" VALDAG_E="" LOKAL="VBU Högbergsskolan" ADRESS1="Kapphallen A-huset" ADRESS2="Bergsgatan 14" ADRESS3="" TILLGÄNGL="" LOKAL_KLAR="J" STATUS="E" LATITUD="60.141293" LONGITUD="15.186608">
        <ÖPPETPASS DATUM="2018-09-09" PASS="08:00-20:00" />
      </VALDISTRIKT>
      <VALDISTRIKT KOD="0102" NAMN="Marnäs" AKTIV_R="J" VALDAG_R="2018-09-09" AKTIV_L="J" VALDAG_L="2018-09-09" AKTIV_K="J" VALDAG_K="2018-09-09" VALKRETS_K="00" VK_NAMN_K="Ludvika" AKTIV_E="N" VALDAG_E="" LOKAL="Kyrkskolan" ADRESS1="Kapphallen" ADRESS2="Högbergsgatan 19" ADRESS3="" TILLGÄNGL="" LOKAL_KLAR="J" STATUS="E" LATITUD="60.149931" LONGITUD="15.19298">
        <ÖPPETPASS DATUM="2018-09-09" PASS="08:00-20:00" />
      </VALDISTRIKT>
      <VALDISTRIKT KOD="0111" NAMN="Näset" AKTIV_R="J" VALDAG_R="2018-09-09" AKTIV_L="J" VALDAG_L="2018-09-09" AKTIV_K="J" VALDAG_K="2018-09-09" VALKRETS_K="00" VK_NAMN_K="Ludvika" AKTIV_E="N" VALDAG_E="" LOKAL="Marnässkolans matsal" ADRESS1="" ADRESS2="Domherrevägen 4, Ludvika" ADRESS3="" TILLGÄNGL="" LOKAL_KLAR="J" STATUS="E" LATITUD="60.151738" LONGITUD="15.207296">
        <ÖPPETPASS DATUM="2018-09-09" PASS="08:00-20:00" />
      </VALDISTRIKT>
      <VALDISTRIKT KOD="0311" NAMN="Rävvåla" AKTIV_R="J" VALDAG_R="2018-09-09" AKTIV_L="J" VALDAG_L="2018-09-09" AKTIV_K="J" VALDAG_K="2018-09-09" VALKRETS_K="00" VK_NAMN_K="Ludvika" AKTIV_E="N" VALDAG_E="" LOKAL="Saxdalens skola" ADRESS1="Idrottshallen" ADRESS2="Gamla Gruvvägen 5, Saxdalen" ADRESS3="" TILLGÄNGL="" LOKAL_KLAR="J" STATUS="E" LATITUD="60.148508" LONGITUD="14.973724">
        <ÖPPETPASS DATUM="2018-09-09" PASS="08:00-20:00" />
      </VALDISTRIKT>
      <VALDISTRIKT KOD="0205" NAMN="Stallbacken" AKTIV_R="J" VALDAG_R="2018-09-09" AKTIV_L="J" VALDAG_L="2018-09-09" AKTIV_K="J" VALDAG_K="2018-09-09" VALKRETS_K="00" VK_NAMN_K="Ludvika" AKTIV_E="N" VALDAG_E="" LOKAL="Stallbackens förskola" ADRESS1="" ADRESS2="Skolvägen 7, Grängesberg" ADRESS3="" TILLGÄNGL="" LOKAL_KLAR="J" STATUS="E" LATITUD="60.076525" LONGITUD="14.983053">
        <ÖPPETPASS DATUM="2018-09-09" PASS="08:00-20:00" />
      </VALDISTRIKT>
      <VALDISTRIKT KOD="0312" NAMN="Sunnansjö" AKTIV_R="J" VALDAG_R="2018-09-09" AKTIV_L="J" VALDAG_L="2018-09-09" AKTIV_K="J" VALDAG_K="2018-09-09" VALKRETS_K="00" VK_NAMN_K="Ludvika" AKTIV_E="N" VALDAG_E="" LOKAL="Solgärde äldreboende" ADRESS1="Samlingssalen" ADRESS2="Hyttvägen 39, Sunnansjö" ADRESS3="" TILLGÄNGL="" LOKAL_KLAR="J" STATUS="E" LATITUD="60.217763" LONGITUD="14.958866">
        <ÖPPETPASS DATUM="2018-09-09" PASS="08:00-20:00" />
      </VALDISTRIKT>
      <VALDISTRIKT KOD="0105" NAMN="Sörvik-Håksberg" AKTIV_R="J" VALDAG_R="2018-09-09" AKTIV_L="J" VALDAG_L="2018-09-09" AKTIV_K="J" VALDAG_K="2018-09-09" VALKRETS_K="00" VK_NAMN_K="Ludvika" AKTIV_E="N" VALDAG_E="" LOKAL="Sörviks Folkets Hus" ADRESS1="" ADRESS2="Grangärdevägen 42, Sörvik" ADRESS3="" TILLGÄNGL="" LOKAL_KLAR="J" STATUS="E" LATITUD="60.189146" LONGITUD="15.145377">
        <ÖPPETPASS DATUM="2018-09-09" PASS="08:00-20:00" />
      </VALDISTRIKT>
      <VALDISTRIKT KOD="0204" NAMN="Öraberget" AKTIV_R="J" VALDAG_R="2018-09-09" AKTIV_L="J" VALDAG_L="2018-09-09" AKTIV_K="J" VALDAG_K="2018-09-09" VALKRETS_K="00" VK_NAMN_K="Ludvika" AKTIV_E="N" VALDAG_E="" LOKAL="Gamla Kommunalhuset" ADRESS1="" ADRESS2="Örabergsvägen 1 Grängesberg" ADRESS3="" TILLGÄNGL="" LOKAL_KLAR="J" STATUS="E" LATITUD="60.075962" LONGITUD="15.008007">
        <ÖPPETPASS DATUM="2018-09-09" PASS="08:00-20:00" />
      </VALDISTRIKT>
    </KOMMUN>
    <KOMMUN KOD="23" NAMN="Malung-Sälen" VALNAMND="Valnämnden i Malung-Sälens kommun" HEMSIDA="www.malung-salen.se" TELNR="0280-181 33" KLAR="J">
      <VALDISTRIKT KOD="0301" NAMN="Lima" AKTIV_R="J" VALDAG_R="2018-09-09" AKTIV_L="J" VALDAG_L="2018-09-09" AKTIV_K="J" VALDAG_K="2018-09-09" VALKRETS_K="00" VK_NAMN_K="Malung-Sälen" AKTIV_E="N" VALDAG_E="" LOKAL="Folkets hus Limedsforsen" ADRESS1="" ADRESS2="Västra Ärnäs 40" ADRESS3="" TILLGÄNGL="" LOKAL_KLAR="J" STATUS="E" LATITUD="60.902636" LONGITUD="13.382516">
        <ÖPPETPASS DATUM="2018-09-09" PASS="08:00-20:00" />
      </VALDISTRIKT>
      <VALDISTRIKT KOD="0203" NAMN="Malung S" AKTIV_R="J" VALDAG_R="2018-09-09" AKTIV_L="J" VALDAG_L="2018-09-09" AKTIV_K="J" VALDAG_K="2018-09-09" VALKRETS_K="00" VK_NAMN_K="Malung-Sälen" AKTIV_E="N" VALDAG_E="" LOKAL="IOGT/NTO-Gården" ADRESS1="" ADRESS2="Dalagatan 3" ADRESS3="" TILLGÄNGL="Det finns ramp in genom ytterdörren samt handikapptoalett" LOKAL_KLAR="J" STATUS="E" LATITUD="60.683116" LONGITUD="13.719572">
        <ÖPPETPASS DATUM="2018-09-09" PASS="08:00-20:00" />
      </VALDISTRIKT>
      <VALDISTRIKT KOD="0206" NAMN="Malungsfors" AKTIV_R="J" VALDAG_R="2018-09-09" AKTIV_L="J" VALDAG_L="2018-09-09" AKTIV_K="J" VALDAG_K="2018-09-09" VALKRETS_K="00" VK_NAMN_K="Malung-Sälen" AKTIV_E="N" VALDAG_E="" LOKAL="Malungsfors Skola" ADRESS1="Gymnastiksalen" ADRESS2="Sjödins väg 12" ADRESS3="" TILLGÄNGL="Det finns ramp in genom ytterdörren och handikappanpassad toalett." LOKAL_KLAR="J" STATUS="E" LATITUD="60.732824" LONGITUD="13.551938">
        <ÖPPETPASS DATUM="2018-09-09" PASS="08:00-20:00" />
      </VALDISTRIKT>
      <VALDISTRIKT KOD="0205" NAMN="Malung V" AKTIV_R="J" VALDAG_R="2018-09-09" AKTIV_L="J" VALDAG_L="2018-09-09" AKTIV_K="J" VALDAG_K="2018-09-09" VALKRETS_K="00" VK_NAMN_K="Malung-Sälen" AKTIV_E="N" VALDAG_E="" LOKAL="Hole bystuga" ADRESS1="" ADRESS2="Bönhusvägen 18" ADRESS3="" TILLGÄNGL="Det finns ramp och handikapptoalett." LOKAL_KLAR="J" STATUS="E" LATITUD="60.678505" LONGITUD="13.701439">
        <ÖPPETPASS DATUM="2018-09-09" PASS="08:00-20:00" />
      </VALDISTRIKT>
      <VALDISTRIKT KOD="0213" NAMN="Malung Ö" AKTIV_R="J" VALDAG_R="2018-09-09" AKTIV_L="J" VALDAG_L="2018-09-09" AKTIV_K="J" VALDAG_K="2018-09-09" VALKRETS_K="00" VK_NAMN_K="Malung-Sälen" AKTIV_E="N" VALDAG_E="" LOKAL="Blomsterbäcksskolan" ADRESS1="Baracken" ADRESS2="Postgatan 23" ADRESS3="" TILLGÄNGL="Det finns rullstolsramp" LOKAL_KLAR="J" STATUS="E" LATITUD="60.686743" LONGITUD="13.716078">
        <ÖPPETPASS DATUM="2018-09-09" PASS="08:00-20:00" />
      </VALDISTRIKT>
      <VALDISTRIKT KOD="0502" NAMN="Transtrand" AKTIV_R="J" VALDAG_R="2018-09-09" AKTIV_L="J" VALDAG_L="2018-09-09" AKTIV_K="J" VALDAG_K="2018-09-09" VALKRETS_K="00" VK_NAMN_K="Malung-Sälen" AKTIV_E="N" VALDAG_E="" LOKAL="Olnispagården, Sälen" ADRESS1="" ADRESS2="Olnispagården" ADRESS3="" TILLGÄNGL="Ramp in genom ytterdörren och handikappanpassad toalett." LOKAL_KLAR="J" STATUS="E" LATITUD="61.158199" LONGITUD="13.257857">
        <ÖPPETPASS DATUM="2018-09-09" PASS="08:00-20:00" />
      </VALDISTRIKT>
